city,lat,lng,country,iso3,local_name,population,continent
Tokyo,35.6897,139.6922,Japan,JPN,Tōkyō,37977000.0,Asia
Jakarta,-6.2146,106.8451,Indonesia,IDN,Jakarta,34540000.0,Asia
Delhi,28.66,77.23,India,IND,Delhi,29617000.0,Asia
Mumbai,18.9667,72.8333,India,IND,Mahārāshtra,23355000.0,Asia
Manila,14.6,120.9833,Philippines,PHL,Manila,23088000.0,Asia
Shanghai,31.1667,121.4667,China,CHN,Shanghai,22120000.0,Asia
São Paulo,-23.5504,-46.6339,Brazil,BRA,São Paulo,22046000.0,South America
Seoul,37.56,126.99,"Korea, South",KOR,Seoul,21794000.0,Asia
Mexico City,19.4333,-99.1333,Mexico,MEX,Ciudad de México,20996000.0,North America
Guangzhou,23.1288,113.259,China,CHN,Guangdong,20902000.0,Asia
Beijing,39.905,116.3914,China,CHN,Beijing,19433000.0,Asia
Cairo,30.0561,31.2394,Egypt,EGY,Al Qāhirah,19372000.0,Africa
New York,40.6943,-73.9249,United States,USA,New York,18713220.0,North America
Kolkāta,22.5411,88.3378,India,IND,West Bengal,17560000.0,Asia
Moscow,55.7558,37.6178,Russia,RUS,Moskva,17125000.0,Europe
Bangkok,13.75,100.5167,Thailand,THA,Krung Thep Maha Nakhon,17066000.0,Asia
Buenos Aires,-34.5997,-58.3819,Argentina,ARG,"Buenos Aires, Ciudad Autónoma de",16157000.0,South America
Shenzhen,22.535,114.054,China,CHN,Guangdong,15929000.0,Asia
Dhaka,23.7289,90.3944,Bangladesh,BGD,Dhaka,15443000.0,Asia
Lagos,6.45,3.4,Nigeria,NGA,Lagos,15279000.0,Africa
Istanbul,41.01,28.9603,Turkey,TUR,İstanbul,15154000.0,Europe
Ōsaka,34.75,135.4601,Japan,JPN,Ōsaka,14977000.0,Asia
Karachi,24.86,67.01,Pakistan,PAK,Sindh,14835000.0,Asia
Bangalore,12.9699,77.598,India,IND,Karnātaka,13707000.0,Asia
Tehran,35.7,51.4167,Iran,IRN,Tehrān,13633000.0,Asia
Kinshasa,-4.3233,15.3081,Congo (Kinshasa),COD,Kinshasa,13528000.0,Africa
Ho Chi Minh City,10.8167,106.6333,Vietnam,VNM,Hồ Chí Minh,13312000.0,Asia
Los Angeles,34.1139,-118.4068,United States,USA,California,12750807.0,North America
Rio de Janeiro,-22.9083,-43.1964,Brazil,BRA,Rio de Janeiro,12272000.0,South America
Nanyang,32.9987,112.5292,China,CHN,Henan,12010000.0,Asia
Baoding,38.8671,115.4845,China,CHN,Hebei,11860000.0,Asia
Chennai,13.0825,80.275,India,IND,Tamil Nādu,11324000.0,Asia
Chengdu,30.66,104.0633,China,CHN,Sichuan,11309000.0,Asia
Lahore,31.5497,74.3436,Pakistan,PAK,Punjab,11021000.0,Asia
Paris,48.8566,2.3522,France,FRA,Île-de-France,11020000.0,Europe
London,51.5072,-0.1275,United Kingdom,GBR,"London, City of",10979000.0,Europe
Linyi,35.0606,118.3425,China,CHN,Shandong,10820000.0,Asia
Tianjin,39.1467,117.2056,China,CHN,Tianjin,10800000.0,Asia
Shijiazhuang,38.0422,114.5086,China,CHN,Hebei,10784600.0,Asia
Zhoukou,33.625,114.6418,China,CHN,Henan,9901000.0,Asia
Lima,-12.05,-77.0333,Peru,PER,Lima,9848000.0,South America
Hyderābād,17.3667,78.4667,India,IND,Telangana,9746000.0,Asia
Handan,36.6116,114.4894,China,CHN,Hebei,9549700.0,Asia
Bogotá,4.6126,-74.0705,Colombia,COL,Bogotá,9464000.0,South America
Weifang,36.7167,119.1,China,CHN,Shandong,9373000.0,Asia
Nagoya,35.1167,136.9333,Japan,JPN,Aichi,9113000.0,Asia
Wuhan,30.5872,114.2881,China,CHN,Hubei,8962000.0,Asia
Heze,35.2333,115.4333,China,CHN,Shandong,8750000.0,Asia
Ganzhou,25.8292,114.9336,China,CHN,Jiangxi,8677600.0,Asia
Tongshan,34.261,117.1859,China,CHN,Jiangsu,8669000.0,Asia
Chicago,41.8373,-87.6862,United States,USA,Illinois,8604203.0,North America
Luanda,-8.8383,13.2344,Angola,AGO,Luanda,8417000.0,Africa
Changsha,28.1987,112.9709,China,CHN,Hunan,8394500.0,Asia
Fuyang,32.8986,115.8045,China,CHN,Anhui,8360000.0,Asia
Kuala Lumpur,3.1478,101.6953,Malaysia,MYS,Kuala Lumpur,8285000.0,Asia
Jining,35.4,116.5667,China,CHN,Shandong,8023000.0,Asia
Dongguan,23.0475,113.7493,China,CHN,Guangdong,7981000.0,Asia
Jinan,36.6667,116.9833,China,CHN,Shandong,7967400.0,Asia
Foshan,23.0292,113.1056,China,CHN,Guangdong,7905700.0,Asia
Hanoi,21.0245,105.8412,Vietnam,VNM,Hà Nội,7785000.0,Asia
Pune,18.5196,73.8553,India,IND,Mahārāshtra,7764000.0,Asia
Chongqing,29.5628,106.5528,China,CHN,Chongqing,7739000.0,Asia
Changchun,43.9,125.2,China,CHN,Jilin,7674439.0,Asia
Zhumadian,32.9773,114.0253,China,CHN,Henan,7640000.0,Asia
Ningbo,29.875,121.5492,China,CHN,Zhejiang,7639000.0,Asia
Cangzhou,38.3037,116.8452,China,CHN,Hebei,7544300.0,Asia
Nanjing,32.05,118.7667,China,CHN,Jiangsu,7496000.0,Asia
Hefei,31.8639,117.2808,China,CHN,Anhui,7457027.0,Asia
Ahmedabad,23.03,72.58,India,IND,Gujarāt,7410000.0,Asia
Hong Kong,22.305,114.185,Hong Kong,HKG,,7347000.0,Asia
Zhanjiang,21.1967,110.4031,China,CHN,Guangdong,7332000.0,Asia
Shaoyang,27.2418,111.4725,China,CHN,Hunan,7302400.0,Asia
Hengyang,26.8968,112.5857,China,CHN,Hunan,7300600.0,Asia
Khartoum,15.6031,32.5265,Sudan,SDN,Khartoum,7282000.0,Africa
Nantong,31.9829,120.8873,China,CHN,Jiangsu,7282835.0,Asia
Yancheng,33.3936,120.1339,China,CHN,Jiangsu,7260240.0,Asia
Nanning,22.8192,108.315,China,CHN,Guangxi,7153300.0,Asia
Xi’an,34.2667,108.9,China,CHN,Shaanxi,7135000.0,Asia
Shenyang,41.8039,123.4258,China,CHN,Liaoning,7105000.0,Asia
Tangshan,39.6292,118.1742,China,CHN,Hebei,7100000.0,Asia
Santiago,-33.45,-70.6667,Chile,CHL,Región Metropolitana,7007000.0,South America
Zhengzhou,34.7492,113.6605,China,CHN,Henan,7005000.0,Asia
Shangqiu,34.4259,115.6467,China,CHN,Henan,7000000.0,Asia
Yantai,37.3997,121.2664,China,CHN,Shandong,6968202.0,Asia
Riyadh,24.65,46.71,Saudi Arabia,SAU,Ar Riyāḑ,6881000.0,Asia
Dar es Salaam,-6.8,39.2833,Tanzania,TZA,Dar es Salaam,6698000.0,Africa
Xinyang,32.1264,114.0672,China,CHN,Henan,6634000.0,Asia
Shangrao,28.4419,117.9633,China,CHN,Jiangxi,6579714.0,Asia
Luoyang,34.6587,112.4245,China,CHN,Henan,6549941.0,Asia
Bijie,27.3019,105.2863,China,CHN,Guizhou,6537498.0,Asia
Quanzhou,24.9139,118.5858,China,CHN,Fujian,6480000.0,Asia
Hangzhou,30.25,120.1675,China,CHN,Zhejiang,6446000.0,Asia
Miami,25.7839,-80.2102,United States,USA,Florida,6445545.0,North America
Huanggang,30.45,114.875,China,CHN,Hubei,6333000.0,Asia
Maoming,21.6618,110.9178,China,CHN,Guangdong,6313200.0,Asia
Kunming,25.0433,102.7061,China,CHN,Yunnan,6250000.0,Asia
Nanchong,30.7991,106.0784,China,CHN,Sichuan,6183000.0,Asia
Zunyi,27.705,106.9336,China,CHN,Guizhou,6127009.0,Asia
Jieyang,23.5533,116.3649,China,CHN,Guangdong,6089400.0,Asia
Lu’an,31.7542,116.5078,China,CHN,Anhui,6090000.0,Asia
Yichun,27.8041,114.383,China,CHN,Jiangxi,6048700.0,Asia
Madrid,40.4167,-3.7167,Spain,ESP,Madrid,6026000.0,Europe
Changde,29.0397,111.6839,China,CHN,Hunan,6011000.0,Asia
Taizhou,28.6583,121.4221,China,CHN,Zhejiang,5968838.0,Asia
Liaocheng,36.45,115.9833,China,CHN,Shandong,5955300.0,Asia
Qujing,25.5102,103.8029,China,CHN,Yunnan,5855055.0,Asia
Sūrat,21.17,72.83,India,IND,Gujarāt,5807000.0,Asia
Baghdad,33.35,44.4167,Iraq,IRQ,Baghdād,5796000.0,Asia
Qingdao,36.1167,120.4,China,CHN,Shandong,5775000.0,Asia
Singapore,1.3,103.8,Singapore,SGP,Central Singapore,5745000.0,Asia
Dallas,32.7936,-96.7662,United States,USA,Texas,5743938.0,North America
Dazhou,31.2152,107.4947,China,CHN,Sichuan,5693000.0,Asia
Suzhou,33.6333,116.9683,China,CHN,Anhui,5690000.0,Asia
Xiangyang,32.0654,112.1531,China,CHN,Hubei,5680000.0,Asia
Philadelphia,40.0077,-75.1339,United States,USA,Pennsylvania,5649300.0,North America
Giza,29.987,31.2118,Egypt,EGY,Al Jīzah,5598402.0,Africa
Nairobi,-1.2864,36.8172,Kenya,KEN,Nairobi City,5545000.0,Africa
Nangandao,35.2992,113.8851,China,CHN,Henan,5516000.0,Asia
Ankara,39.93,32.85,Turkey,TUR,Ankara,5503985.0,Europe
Tai’an,36.2001,117.0809,China,CHN,Shandong,5499000.0,Asia
Yulin,22.6293,110.1507,China,CHN,Guangxi,5487368.0,Asia
Dezhou,37.4513,116.3105,China,CHN,Shandong,5470000.0,Asia
Houston,29.7863,-95.3889,United States,USA,Texas,5464251.0,North America
Atlanta,33.7627,-84.4224,United States,USA,Georgia,5449398.0,North America
Yongzhou,26.4515,111.5953,China,CHN,Hunan,5446100.0,Asia
Rangoon,16.8,96.15,Myanmar,MMR,Yangon,5430000.0,Asia
Toronto,43.7417,-79.3733,Canada,CAN,Ontario,5429524.0,North America
Suihua,46.6384,126.9808,China,CHN,Heilongjiang,5420000.0,Asia
Washington,38.9047,-77.0163,United States,USA,District of Columbia,5379184.0,North America
Qiqihar,47.3398,123.9512,China,CHN,Heilongjiang,5367003.0,Asia
Jinhua,29.1046,119.6494,China,CHN,Zhejiang,5361572.0,Asia
Saint Petersburg,59.95,30.3167,Russia,RUS,Sankt-Peterburg,5351935.0,Europe
Shantou,23.3735,116.6941,China,CHN,Guangdong,5319028.0,Asia
Sydney,-33.865,151.2094,Australia,AUS,New South Wales,5312163.0,Oceania
Weinan,34.4996,109.4684,China,CHN,Shaanxi,5300000.0,Asia
Suqian,33.9331,118.2831,China,CHN,Jiangsu,5290000.0,Asia
Guadalajara,20.6767,-103.3475,Mexico,MEX,Jalisco,5253000.0,North America
Suzhou,31.304,120.6164,China,CHN,Jiangsu,5250000.0,Asia
Fuzhou,26.0769,119.2917,China,CHN,Fujian,5245000.0,Asia
Zhaotong,27.3328,103.7144,China,CHN,Yunnan,5213521.0,Asia
Pudong,31.2231,121.5397,China,CHN,Shanghai,5187200.0,Asia
Belo Horizonte,-19.9281,-43.9419,Brazil,BRA,Minas Gerais,5159000.0,South America
Zhangzhou,24.5093,117.6612,China,CHN,Fujian,5140000.0,Asia
Bozhou,33.8626,115.7742,China,CHN,Anhui,5100000.0,Asia
Melbourne,-37.8136,144.9631,Australia,AUS,Victoria,5078193.0,Oceania
Nanchang,28.6842,115.8872,China,CHN,Jiangxi,5042565.0,Asia
Xianyang,34.35,108.7167,China,CHN,Shaanxi,5040000.0,Asia
Taizhou,32.4831,119.9,China,CHN,Jiangsu,5031000.0,Asia
Surabaya,-7.2458,112.7378,Indonesia,IDN,Jawa Timur,4975000.0,Asia
Abidjan,5.3364,-4.0267,Côte D’Ivoire,CIV,Abidjan,4980000.0,Africa
Huaihua,27.5494,109.9592,China,CHN,Hunan,4983300.0,Asia
Ji’an,27.1172,114.9793,China,CHN,Jiangxi,4956600.0,Asia
Mianyang,31.4669,104.7385,China,CHN,Sichuan,4945000.0,Asia
Xiaoganzhan,30.9273,113.911,China,CHN,Hubei,4921000.0,Asia
Shaoxing,30.0,120.5833,China,CHN,Zhejiang,4912239.0,Asia
Alexandria,31.2,29.9167,Egypt,EGY,Al Iskandarīyah,4870000.0,Africa
Yuncheng,35.0304,110.998,China,CHN,Shanxi,4860000.0,Asia
Pingdingshan,33.735,113.2999,China,CHN,Henan,4838000.0,Asia
Huizhou,23.1115,114.4152,China,CHN,Guangdong,4830000.0,Asia
Huai’an,33.5,119.1331,China,CHN,Jiangsu,4799889.0,Asia
Xinpu,34.5906,119.1801,China,CHN,Jiangsu,4790000.0,Asia
Chenzhou,25.7989,113.0267,China,CHN,Hunan,4754600.0,Asia
Guilin,25.2667,110.2833,China,CHN,Guangxi,4747963.0,Asia
Jiujiang,29.7048,116.0021,China,CHN,Jiangxi,4728778.0,Asia
Anqing,30.5,117.0333,China,CHN,Anhui,4723000.0,Asia
Boston,42.3188,-71.0846,United States,USA,Massachusetts,4688346.0,North America
Huanglongsi,34.7936,114.3403,China,CHN,Henan,4676159.0,Asia
Jiangmen,22.5833,113.0833,China,CHN,Guangdong,4630300.0,Asia
Changzhou,31.8122,119.9692,China,CHN,Jiangsu,4592431.0,Asia
Barcelona,41.3825,2.1769,Spain,ESP,Catalonia,4588000.0,Europe
Wuxi,31.5667,120.2833,China,CHN,Jiangsu,4580000.0,Asia
Zibo,36.7831,118.0497,China,CHN,Shandong,4530597.0,Asia
Jiaxing,30.7522,120.75,China,CHN,Zhejiang,4501657.0,Asia
Dalian,38.9,121.6,China,CHN,Liaoning,4480000.0,Asia
Hengshui,37.7348,115.686,China,CHN,Hebei,4472000.0,Asia
Harbin,45.75,126.6333,China,CHN,Heilongjiang,4458000.0,Asia
Yangzhou,32.3912,119.4363,China,CHN,Jiangsu,4459000.0,Asia
Yibin,28.7596,104.64,China,CHN,Sichuan,4456000.0,Asia
Johannesburg,-26.2044,28.0416,South Africa,ZAF,Gauteng,4434827.0,Africa
Yiyang,28.5833,112.3333,China,CHN,Hunan,4420700.0,Asia
Meizhou,24.2998,116.1191,China,CHN,Guangdong,4378800.0,Asia
Chifeng,42.2663,118.9223,China,CHN,Inner Mongolia,4376600.0,Asia
Casablanca,33.5992,-7.62,Morocco,MAR,Casablanca-Settat,4370000.0,Africa
Guiyang,26.5794,106.7078,China,CHN,Guizhou,4365000.0,Asia
Langfang,39.5196,116.7006,China,CHN,Hebei,4358839.0,Asia
Zhangjiakou,40.8108,114.8811,China,CHN,Hebei,4345491.0,Asia
İzmir,38.4127,27.1384,Turkey,TUR,İzmir,4320519.0,Europe
Linfen,36.0812,111.5087,China,CHN,Shanxi,4316610.0,Asia
Wenzhou,27.9991,120.6561,China,CHN,Zhejiang,4310000.0,Asia
Monterrey,25.6667,-100.3,Mexico,MEX,Nuevo León,4295000.0,North America
Luzhou,28.8918,105.4409,China,CHN,Sichuan,4291000.0,Asia
Jiangguanchi,34.0244,113.8201,China,CHN,Henan,4289000.0,Asia
Neijiang,29.5872,105.0635,China,CHN,Sichuan,4238000.0,Asia
Phoenix,33.5722,-112.0891,United States,USA,Arizona,4219697.0,North America
Yanjiang,30.1256,104.6397,China,CHN,Sichuan,4217000.0,Asia
Zhaoqing,23.05,112.4667,China,CHN,Guangdong,4151700.0,Asia
Xiaoxita,30.7083,111.2803,China,CHN,Hubei,4137900.0,Asia
Guigang,23.0961,109.6092,China,CHN,Guangxi,4118808.0,Asia
Xiamen,24.4797,118.0819,China,CHN,Fujian,4110000.0,Asia
Chuzhou,32.3062,118.3115,China,CHN,Anhui,4110000.0,Asia
Fuzhou,27.9814,116.3577,China,CHN,Jiangxi,4047200.0,Asia
Zhuzhou,27.8407,113.1469,China,CHN,Hunan,4028500.0,Asia
Amman,31.95,35.9333,Jordan,JOR,Al ‘Āşimah,4007526.0,Asia
Jeddah,21.5428,39.1728,Saudi Arabia,SAU,Makkah al Mukarramah,3976000.0,Asia
Loudi,27.7378,111.9974,China,CHN,Hunan,3941300.0,Asia
Deyang,31.1289,104.395,China,CHN,Sichuan,3877000.0,Asia
Qingyuan,23.6842,113.0507,China,CHN,Guangdong,3874000.0,Asia
Wuhu,31.334,118.3622,China,CHN,Anhui,3842100.0,Asia
Hechi,23.0965,109.6091,China,CHN,Guangxi,3830000.0,Asia
Seattle,47.6211,-122.3244,United States,USA,Washington,3789215.0,North America
Binzhou,37.3806,118.0125,China,CHN,Shandong,3779200.0,Asia
Yokohama,35.4333,139.6333,Japan,JPN,Kanagawa,3757630.0,Asia
Liuzhou,24.3264,109.4281,China,CHN,Guangxi,3758704.0,Asia
Baojishi,34.3609,107.1751,China,CHN,Shaanxi,3738700.0,Asia
Guang’an,30.4673,106.6336,China,CHN,Sichuan,3723000.0,Asia
Hanzhong,33.0794,107.026,China,CHN,Shaanxi,3700000.0,Asia
Kabul,34.5328,69.1658,Afghanistan,AFG,Kābul,3678034.0,Asia
Zaozhuang,34.8667,117.55,China,CHN,Shandong,3650000.0,Asia
Berlin,52.5167,13.3833,Germany,DEU,Berlin,3644826.0,Europe
Anshan,41.1066,122.9895,China,CHN,Liaoning,3645884.0,Asia
Lanzhou,36.0617,103.8318,China,CHN,Gansu,3616163.0,Asia
Chengde,40.9739,117.9322,China,CHN,Hebei,3610000.0,Asia
San Francisco,37.7562,-122.443,United States,USA,California,3592294.0,North America
Puyang,35.7639,115.03,China,CHN,Henan,3580000.0,Asia
Suining,30.5098,105.5737,China,CHN,Sichuan,3556000.0,Asia
Jiaozuo,35.229,113.2304,China,CHN,Henan,3540101.0,Asia
Bengbu,32.9354,117.3531,China,CHN,Anhui,3525000.0,Asia
Montréal,45.5089,-73.5617,Canada,CAN,Quebec,3519595.0,North America
Detroit,42.3834,-83.1024,United States,USA,Michigan,3506126.0,North America
Baicheng,23.901,106.6194,China,CHN,Guangxi,3466758.0,Asia
Busan,35.1,129.0403,"Korea, South",KOR,Busan,3453198.0,Asia
Algiers,36.7764,3.0586,Algeria,DZA,Alger,3415811.0,Africa
Qincheng,34.5809,105.7311,China,CHN,Gansu,3400000.0,Asia
Taiyuan,37.8733,112.5425,China,CHN,Shanxi,3398000.0,Asia
Shiyan,32.6351,110.7755,China,CHN,Hubei,3398000.0,Asia
Lucknow,26.847,80.947,India,IND,Uttar Pradesh,3382000.0,Asia
Chaoyang,41.5757,120.4486,China,CHN,Liaoning,3370000.0,Asia
Hechi,24.6928,108.085,China,CHN,Guangxi,3369251.0,Asia
Leshan,29.5854,103.7575,China,CHN,Sichuan,3364000.0,Asia
Yulinshi,38.2655,109.7388,China,CHN,Shaanxi,3328000.0,Asia
Siping,43.1715,124.3644,China,CHN,Jilin,3300000.0,Asia
Zhongshan,22.5333,113.35,China,CHN,Guangdong,3260000.0,Asia
Changzhi,36.1953,113.097,China,CHN,Shanxi,3230000.0,Asia
San Diego,32.8312,-117.1225,United States,USA,California,3220118.0,North America
Faisalabad,31.418,73.079,Pakistan,PAK,Punjab,3203846.0,Asia
Santa Cruz,-17.7892,-63.1975,Bolivia,BOL,Santa Cruz,3151676.0,South America
Qinhuangdao,39.9398,119.5881,China,CHN,Hebei,3146300.0,Asia
Bazhou,31.8576,106.7559,China,CHN,Sichuan,3134000.0,Asia
Zhenjiang,32.2109,119.4551,China,CHN,Jiangsu,3113384.0,Asia
Ürümqi,43.8225,87.6125,China,CHN,Xinjiang,3112559.0,Asia
Tongliao,43.6172,122.264,China,CHN,Inner Mongolia,3094600.0,Asia
Heyuan,23.7503,114.6923,China,CHN,Guangdong,3093900.0,Asia
Tongren,27.7233,109.1885,China,CHN,Guizhou,3093204.0,Asia
Qinzhou,21.95,108.6167,China,CHN,Guangxi,3079721.0,Asia
Jaipur,26.9167,75.8667,India,IND,Rājasthān,3073350.0,Asia
Xinzhou,38.4178,112.7233,China,CHN,Shanxi,3067501.0,Asia
Addis Ababa,9.0272,38.7369,Ethiopia,ETH,Ādīs Ābeba,3041002.0,Africa
Meishan,30.0575,103.8381,China,CHN,Sichuan,3020000.0,Asia
Brasília,-15.7939,-47.8828,Brazil,BRA,Distrito Federal,3015268.0,South America
Mashhad,36.3069,59.6042,Iran,IRN,Khorāsān-e Raẕavī,3001184.0,Asia
Jinzhou,41.1144,121.1292,China,CHN,Liaoning,3000000.0,Asia
Tieling,42.2841,123.8365,China,CHN,Liaoning,3000000.0,Asia
Shaoguan,24.8011,113.5927,China,CHN,Guangdong,2997600.0,Asia
Kuwait City,29.375,47.98,Kuwait,KWT,Al ‘Āşimah,2989000.0,Asia
Shanwei,22.7664,115.3331,China,CHN,Guangdong,2993600.0,Asia
Minneapolis,44.9635,-93.2678,United States,USA,Minnesota,2977172.0,North America
Kyiv,50.45,30.5236,Ukraine,UKR,"Kyyiv, Misto",2963199.0,Europe
Sanaa,15.35,44.2,Yemen,YEM,Amānat al ‘Āşimah,2957000.0,Asia
Quezon City,14.6333,121.0333,Philippines,PHL,Quezon,2936116.0,Asia
Dingxi,35.5806,104.6263,China,CHN,Gansu,2930000.0,Asia
Incheon,37.4639,126.6486,"Korea, South",KOR,Incheon,2913024.0,Asia
Bursa,40.1833,29.0667,Turkey,TUR,Bursa,2901396.0,Europe
Ningde,26.6667,119.5167,China,CHN,Fujian,2910000.0,Asia
Tampa,27.9942,-82.4451,United States,USA,Florida,2908063.0,North America
Daqing,46.5979,125.008,China,CHN,Heilongjiang,2904532.0,Asia
Birmingham,52.48,-1.9025,United Kingdom,GBR,Birmingham,2897303.0,Europe
Putian,25.4394,119.0103,China,CHN,Fujian,2900000.0,Asia
Huzhou,30.8695,120.0958,China,CHN,Zhejiang,2893542.0,Asia
Salvador,-12.9708,-38.5108,Brazil,BRA,Bahia,2886698.0,South America
Wuzhou,23.4833,111.3167,China,CHN,Guangxi,2882200.0,Asia
Xiangtan,27.8431,112.9228,China,CHN,Hunan,2881500.0,Asia
Denver,39.7621,-104.8759,United States,USA,Colorado,2876625.0,North America
Rome,41.8931,12.4828,Italy,ITA,Lazio,2872800.0,Europe
La Paz,-16.4942,-68.1475,Bolivia,BOL,La Paz,2867504.0,South America
Pyongyang,39.03,125.73,"Korea, North",PRK,P’yŏngyang,2863000.0,Asia
Kano,12.0,8.5167,Nigeria,NGA,Kano,2828861.0,Africa
Taichung,24.15,120.6667,Taiwan,TWN,Taichung,2803894.0,Asia
Omdurman,15.6835,32.4629,Sudan,SDN,Khartoum,2805396.0,Africa
Zigong,29.3498,104.7645,China,CHN,Sichuan,2800000.0,Asia
Mudanjiang,44.5861,129.5997,China,CHN,Heilongjiang,2790000.0,Asia
Huludao,40.7094,120.8378,China,CHN,Liaoning,2787000.0,Asia
Kaohsiung,22.6167,120.3,Taiwan,TWN,Kaohsiung,2773533.0,Asia
Guayaquil,-2.1833,-79.8833,Ecuador,ECU,Guayas,2723665.0,South America
Rizhao,35.4164,119.4331,China,CHN,Shandong,2720000.0,Asia
Manchester,53.4794,-2.2453,United Kingdom,GBR,Manchester,2705000.0,Europe
Cawnpore,26.4725,80.3311,India,IND,Uttar Pradesh,2701324.0,Asia
Baotou,40.6562,109.8345,China,CHN,Inner Mongolia,2700000.0,Asia
Taipei,25.0478,121.5319,Taiwan,TWN,Taipei,2684567.0,Asia
Nanping,26.6448,118.1728,China,CHN,Fujian,2690000.0,Asia
Chaozhou,23.67,116.63,China,CHN,Guangdong,2656600.0,Asia
Longyan,25.0881,117.0244,China,CHN,Fujian,2640000.0,Asia
Ibadan,7.3964,3.9167,Nigeria,NGA,Oyo,2628000.0,Africa
Hohhot,40.8151,111.6629,China,CHN,Inner Mongolia,2635000.0,Asia
Antananarivo,-18.9386,47.5214,Madagascar,MDG,Antananarivo,2610000.0,Africa
Longba,33.535,105.349,China,CHN,Gansu,2614000.0,Asia
Weihai,37.5,122.1,China,CHN,Shandong,2596753.0,Asia
Chattogram,22.335,91.8325,Bangladesh,BGD,Chittagong,2581643.0,Asia
Santo Domingo,18.4764,-69.8933,Dominican Republic,DOM,Ozama,2581827.0,North America
Xuanzhou,30.9475,118.7518,China,CHN,Anhui,2580000.0,Asia
Sanming,26.2658,117.6302,China,CHN,Fujian,2580000.0,Asia
Brooklyn,40.6501,-73.9496,United States,USA,New York,2559903.0,North America
Yangjiang,21.8556,111.9627,China,CHN,Guangdong,2555600.0,Asia
Medellín,6.2447,-75.5748,Colombia,COL,Antioquia,2529403.0,South America
Yunfu,22.9242,112.0353,China,CHN,Guangdong,2526900.0,Asia
Brisbane,-27.4678,153.0281,Australia,AUS,Queensland,2514184.0,Oceania
Baoshan,25.1211,99.169,China,CHN,Yunnan,2506491.0,Asia
Dubai,25.2697,55.3094,United Arab Emirates,ARE,Dubayy,2502715.0,Asia
Luohe,33.583,114.0109,China,CHN,Henan,2500000.0,Asia
Qinbaling,35.7278,107.64,China,CHN,Gansu,2500000.0,Asia
Mirzāpur,25.15,82.58,India,IND,Uttar Pradesh,2496970.0,Asia
Guangyuan,32.4353,105.8398,China,CHN,Sichuan,2484122.0,Asia
Cali,3.44,-76.5197,Colombia,COL,Valle del Cauca,2471474.0,South America
Huangshi,30.2018,115.0326,China,CHN,Hubei,2471700.0,Asia
Daegu,35.8667,128.6,"Korea, South",KOR,Daegu,2461002.0,Asia
Fortaleza,-3.7275,-38.5275,Brazil,BRA,Ceará,2452185.0,South America
Guatemala City,14.6099,-90.5252,Guatemala,GTM,Guatemala,2450212.0,North America
Yaoundé,3.8578,11.5181,Cameroon,CMR,Centre,2440462.0,Africa
Douala,4.05,9.7,Cameroon,CMR,Littoral,2446945.0,Africa
Jilin,43.85,126.55,China,CHN,Jilin,2396000.0,Asia
Lianshan,40.7503,120.83,China,CHN,Liaoning,2426000.0,Asia
Lincang,23.8864,100.0871,China,CHN,Yunnan,2429497.0,Asia
Antalya,36.9081,30.6956,Turkey,TUR,Antalya,2426356.0,Europe
Tashkent,41.3,69.2667,Uzbekistan,UZB,Toshkent,2424100.0,Asia
Bandung,-6.95,107.5667,Indonesia,IDN,Jawa Barat,2394873.0,Asia
Nāgpur,21.1539,79.0831,India,IND,Mahārāshtra,2405665.0,Asia
Huainan,32.4831,117.0164,China,CHN,Anhui,2409000.0,Asia
Dandong,40.1167,124.3833,China,CHN,Liaoning,2400000.0,Asia
Shangzhou,33.868,109.9244,China,CHN,Shaanxi,2400000.0,Asia
Bekasi,-6.2333,107.0,Indonesia,IDN,Jawa Barat,2381053.0,Asia
Ghāziābād,28.6667,77.4167,India,IND,Uttar Pradesh,2381452.0,Asia
Tijuana,32.525,-117.0333,Mexico,MEX,Baja California,2384609.0,North America
Jiamusi,46.8081,130.3653,China,CHN,Heilongjiang,2360000.0,Asia
Accra,5.6037,-0.187,Ghana,GHA,Greater Accra,2291352.0,Africa
Yuxi,24.3495,102.5432,China,CHN,Yunnan,2303518.0,Asia
Anshun,26.2456,105.934,China,CHN,Guizhou,2297612.0,Asia
Vancouver,49.25,-123.1,Canada,CAN,British Columbia,2264823.0,North America
Tangerang,-6.1783,106.6319,Indonesia,IDN,Jawa Barat,2237006.0,Asia
Konya,37.8714,32.4847,Turkey,TUR,Konya,2232374.0,Europe
Queens,40.7498,-73.7976,United States,USA,New York,2230722.0,North America
Yingkou,40.6653,122.2297,China,CHN,Liaoning,2220000.0,Asia
Adana,37.0,35.325,Turkey,TUR,Adana,2220125.0,Europe
Medan,3.6667,98.6667,Indonesia,IDN,Sumatera Utara,2210625.0,Asia
Sanmenxia,34.7736,111.195,China,CHN,Henan,2213000.0,Asia
Indore,22.7206,75.8472,India,IND,Madhya Pradesh,2201927.0,Asia
Ma’anshan,31.7135,118.3605,China,CHN,Anhui,2202899.0,Asia
Pingliang,35.5412,106.6819,China,CHN,Gansu,2190000.0,Asia
Quzhou,28.9545,118.8763,China,CHN,Zhejiang,2185000.0,Asia
Baku,40.3667,49.8352,Azerbaijan,AZE,Bakı,2181800.0,Asia
Gaoping,30.7804,106.13,China,CHN,Sichuan,2174000.0,Asia
Huaibei,33.9562,116.789,China,CHN,Anhui,2158000.0,Asia
Xining,36.6239,101.7787,China,CHN,Qinghai,2154000.0,Asia
Harare,-17.8292,31.0522,Zimbabwe,ZWE,Harare,2150000.0,Africa
Yan’an,36.5952,109.4863,China,CHN,Shaanxi,2150000.0,Asia
Havana,23.1367,-82.3589,Cuba,CUB,La Habana,2141652.0,North America
Phnom Penh,11.5696,104.921,Cambodia,KHM,Phnom Penh,2129371.0,Asia
Fukuoka,33.6,130.4167,Japan,JPN,Fukuoka,2128000.0,Asia
Mogadishu,2.0408,45.3425,Somalia,SOM,Banaadir,2120000.0,Africa
Jincheng,35.4906,112.8483,China,CHN,Shanxi,2120000.0,Asia
Puning,23.2993,116.1586,China,CHN,Guangdong,2118200.0,Asia
Lishui,28.45,119.9167,China,CHN,Zhejiang,2116957.0,Asia
Qingyang,24.8141,118.5792,China,CHN,Fujian,2111000.0,Asia
Riverside,33.9381,-117.3948,United States,USA,California,2107852.0,North America
Baltimore,39.3051,-76.6144,United States,USA,Maryland,2106068.0,North America
Haiphong,20.8,106.6667,Vietnam,VNM,Hải Phòng,2103500.0,Asia
Las Vegas,36.2333,-115.2654,United States,USA,Nevada,2104198.0,North America
Laibin,23.7333,109.2333,China,CHN,Guangxi,2099711.0,Asia
Rawalpindi,33.6007,73.0679,Pakistan,PAK,Punjab,2098231.0,Asia
Kumasi,6.6833,-1.6167,Ghana,GHA,Ashanti,2069350.0,Africa
Portland,45.5372,-122.65,United States,USA,Oregon,2074775.0,North America
Vadodara,22.3,73.2,India,IND,Gujarāt,2065771.0,Asia
Perth,-31.9522,115.8589,Australia,AUS,Western Australia,2059484.0,Oceania
San Antonio,29.4658,-98.5253,United States,USA,Texas,2049293.0,North America
Vishākhapatnam,17.7333,83.3167,India,IND,Andhra Pradesh,2035922.0,Asia
Gujranwala,32.15,74.1833,Pakistan,PAK,Punjab,2027001.0,Asia
Gaziantep,37.0667,37.3833,Turkey,TUR,Gaziantep,2028563.0,Europe
Fushun,41.8708,123.8917,China,CHN,Liaoning,2024000.0,Asia
St. Louis,38.6358,-90.2451,United States,USA,Missouri,2024074.0,North America
Bamako,12.6458,-7.9922,Mali,MLI,Bamako,2009109.0,Africa
Quito,-0.2186,-78.5097,Ecuador,ECU,Pichincha,2011388.0,South America
Minsk,53.9022,27.5618,Belarus,BLR,Minsk,2009786.0,Europe
Pingxiang,27.6333,113.85,China,CHN,Jiangxi,2001027.0,Asia
Chongzuo,22.4167,107.3667,China,CHN,Guangxi,1994285.0,Asia
Şanlıurfa,37.1583,38.7917,Turkey,TUR,Şanlıurfa,1985753.0,Europe
Kananga,-5.897,22.4488,Congo (Kinshasa),COD,Kasaï Central,1971704.0,Africa
Peshawar,34.0,71.5,Pakistan,PAK,Khyber Pakhtunkhwa,1970042.0,Asia
Sapporo,43.0621,141.3544,Japan,JPN,Hokkaidō,1961690.0,Asia
Hezhou,24.4164,111.5478,China,CHN,Guangxi,1954072.0,Asia
Jixi,45.2937,130.965,China,CHN,Heilongjiang,1950000.0,Asia
Caracas,10.5,-66.9333,Venezuela,VEN,Distrito Capital,1943901.0,South America
Fuxin,42.0127,121.6486,China,CHN,Liaoning,1930000.0,Asia
Aleppo,36.2,37.15,Syria,SYR,Ḩalab,1916781.0,Asia
Almaty,43.25,76.9,Kazakhstan,KAZ,Almaty,1916822.0,Asia
Dayr az Zawr,35.3333,40.15,Syria,SYR,Dayr az Zawr,1918000.0,Asia
Vienna,48.2083,16.3731,Austria,AUT,Wien,1911191.0,Europe
Leeds,53.7997,-1.5492,United Kingdom,GBR,Leeds,1901934.0,Europe
Sacramento,38.5667,-121.4683,United States,USA,California,1898019.0,North America
Blantyre,-15.7861,35.0058,Malawi,MWI,Blantyre,1895973.0,Africa
Tainan,22.9833,120.1833,Taiwan,TWN,Tainan,1883831.0,Asia
Zhuhai,22.2769,113.5678,China,CHN,Guangdong,1891100.0,Asia
Bucharest,44.4,26.0833,Romania,ROU,Bucureşti,1883425.0,Europe
Wuwei,37.9278,102.6329,China,CHN,Gansu,1890000.0,Asia
Bhopāl,23.25,77.4167,India,IND,Madhya Pradesh,1883381.0,Asia
Curitiba,-25.4297,-49.2719,Brazil,BRA,Paraná,1879355.0,South America
Multan,30.1978,71.4711,Pakistan,PAK,Punjab,1871843.0,Asia
Xiping,40.08,113.3,China,CHN,Shanxi,1873000.0,Asia
Asunción,-25.3,-57.6333,Paraguay,PRY,Asunción,1870000.0,South America
Saidu Sharif,34.75,72.3572,Pakistan,PAK,Khyber Pakhtunkhwa,1860310.0,Asia
Hamburg,53.55,10.0,Germany,DEU,Hamburg,1841179.0,Europe
Meru,0.05,37.65,Kenya,KEN,Meru,1833000.0,Africa
Brazzaville,-4.2667,15.2833,Congo (Brazzaville),COG,Brazzaville,1827000.0,Africa
Orlando,28.4772,-81.3369,United States,USA,Florida,1822394.0,North America
Mersin,36.8,34.6167,Turkey,TUR,Mersin,1814468.0,Europe
Kyōto,35.0111,135.7669,Japan,JPN,Kyōto,1805000.0,Asia
Manaus,-3.1,-60.0167,Brazil,BRA,Amazonas,1802014.0,South America
Liaoyang,41.2643,123.1772,China,CHN,Liaoning,1800000.0,Asia
Baiyin,36.5448,104.1766,China,CHN,Gansu,1799000.0,Asia
San Jose,37.3019,-121.8486,United States,USA,California,1798103.0,North America
Warsaw,52.2167,21.0333,Poland,POL,Mazowieckie,1790658.0,Europe
Shengli,37.45,118.4667,China,CHN,Shandong,1790000.0,Asia
Lubumbashi,-11.6697,27.4581,Congo (Kinshasa),COD,Haut-Katanga,1786397.0,Africa
Haikou,20.02,110.32,China,CHN,Hainan,1776141.0,Asia
Damascus,33.5131,36.2919,Syria,SYR,Dimashq,1754000.0,Asia
Shuyangzha,34.1299,118.7734,China,CHN,Jiangsu,1770000.0,Asia
Brussels,50.8333,4.3333,Belgium,BEL,Brussels-Capital Region,1743000.0,Europe
Eşfahān,32.6447,51.6675,Iran,IRN,Eşfahān,1756126.0,Asia
Budapest,47.4983,19.0408,Hungary,HUN,Budapest,1752286.0,Europe
Heihe,50.2458,127.4886,China,CHN,Heilongjiang,1750000.0,Asia
Lusaka,-15.4167,28.2833,Zambia,ZMB,Lusaka,1742979.0,Africa
Hyderabad City,25.3792,68.3683,Pakistan,PAK,Sindh,1732693.0,Asia
Diyarbakır,37.9108,40.2367,Turkey,TUR,Diyarbakır,1732396.0,Europe
Chinchvad,18.6278,73.8131,India,IND,Mahārāshtra,1729320.0,Asia
Shuozhou,39.3408,112.4292,China,CHN,Shanxi,1714857.0,Asia
Cleveland,41.4767,-81.6804,United States,USA,Ohio,1710093.0,North America
Pittsburgh,40.4396,-79.9762,United States,USA,Pennsylvania,1703266.0,North America
Patna,25.61,85.1414,India,IND,Bihār,1684222.0,Asia
Mosul,36.3667,43.1167,Iraq,IRQ,Nīnawá,1694000.0,Asia
Austin,30.3004,-97.7522,United States,USA,Texas,1687311.0,North America
Sanzhou,30.82,108.4,China,CHN,Chongqing,1680000.0,Asia
Mecca,21.4225,39.8261,Saudi Arabia,SAU,Makkah al Mukarramah,1675368.0,Asia
Conakry,9.5092,-13.7122,Guinea,GIN,Conakry,1667864.0,Africa
Kampala,0.3136,32.5811,Uganda,UGA,Kampala,1659600.0,Africa
Ecatepec,19.6097,-99.06,Mexico,MEX,México,1656107.0,North America
Cincinnati,39.1413,-84.5061,United States,USA,Ohio,1662691.0,North America
Makassar,-5.1331,119.4136,Indonesia,IDN,Sulawesi Selatan,1651146.0,Asia
Yushan,31.3867,120.9766,China,CHN,Jiangsu,1651200.0,Asia
Ludhiāna,30.9083,75.8486,India,IND,Punjab,1649000.0,Asia
Newcastle,55.0077,-1.6578,United Kingdom,GBR,Newcastle upon Tyne,1650000.0,Europe
Depok,-6.394,106.8225,Indonesia,IDN,Jawa Barat,1631951.0,Asia
Zhongli,24.965,121.2168,Taiwan,TWN,Taoyuan,1632616.0,Asia
Kansas City,39.1239,-94.5541,United States,USA,Missouri,1636715.0,North America
Ouagadougou,12.3572,-1.5353,Burkina Faso,BFA,Centre,1626950.0,Africa
Davao,7.0667,125.6,Philippines,PHL,Davao,1632991.0,Asia
Manhattan,40.7834,-73.9662,United States,USA,New York,1628706.0,North America
Semarang,-6.9667,110.4167,Indonesia,IDN,Jawa Tengah,1621384.0,Asia
Yinchuan,38.4795,106.2254,China,CHN,Ningxia,1616000.0,Asia
Caloocan City,14.65,120.9667,Philippines,PHL,Caloocan,1583978.0,Asia
Novosibirsk,55.0333,82.9167,Russia,RUS,Novosibirskaya Oblast’,1602915.0,Europe
Chengtangcun,35.0833,117.15,China,CHN,Shandong,1603659.0,Asia
Āgra,27.18,78.02,India,IND,Uttar Pradesh,1585705.0,Asia
Karaj,35.8327,50.9915,Iran,IRN,Alborz,1592492.0,Asia
Indianapolis,39.7771,-86.1458,United States,USA,Indiana,1588961.0,North America
Jingdezhen,29.2942,117.2036,China,CHN,Jiangxi,1587477.0,Asia
Puebla,19.0333,-98.1833,Mexico,MEX,Puebla,1576259.0,North America
Kalyān,19.2502,73.1602,India,IND,Mahārāshtra,1576614.0,Asia
Madurai,9.9197,78.1194,India,IND,Tamil Nādu,1561129.0,Asia
Benxi,41.292,123.761,China,CHN,Liaoning,1567000.0,Asia
Jamshedpur,22.8,86.1833,India,IND,Jharkhand,1558000.0,Asia
Recife,-8.0539,-34.8808,Brazil,BRA,Pernambuco,1555039.0,South America
Columbus,39.9862,-82.985,United States,USA,Ohio,1562009.0,North America
Tabrīz,38.0833,46.2833,Iran,IRN,Āz̄arbāyjān-e Sharqī,1558693.0,Asia
Maracaibo,10.6333,-71.6333,Venezuela,VEN,Zulia,1551539.0,South America
Zhangjiajie,29.1255,110.4844,China,CHN,Hunan,1549200.0,Asia
Beihai,21.4667,109.1,China,CHN,Guangxi,1539251.0,Asia
Shuangyashan,46.6388,131.1545,China,CHN,Heilongjiang,1530000.0,Asia
Kōbe,34.6913,135.183,Japan,JPN,Hyōgo,1513193.0,Asia
Charlotte,35.208,-80.8304,United States,USA,North Carolina,1512923.0,North America
Yucheng,29.9888,103.0007,China,CHN,Sichuan,1512000.0,Asia
Changshu,31.65,120.7333,China,CHN,Jiangsu,1510100.0,Asia
Lianjiang,21.6146,110.2794,China,CHN,Guangdong,1509400.0,Asia
Ximeicun,24.9633,118.3811,China,CHN,Fujian,1508000.0,Asia
Jianguang,28.1958,115.7833,China,CHN,Jiangxi,1507402.0,Asia
Madīnat as Sādis min Uktūbar,29.9361,30.9269,Egypt,EGY,Al Jīzah,1500000.0,Africa
Xushan,30.1697,121.2665,China,CHN,Zhejiang,1502000.0,Asia
Belém,-1.4558,-48.5039,Brazil,BRA,Pará,1499641.0,South America
Guiping,23.4,110.0833,China,CHN,Guangxi,1496904.0,Asia
Leizhou,20.9147,110.0806,China,CHN,Guangdong,1494700.0,Asia
Gwangju,35.1667,126.9167,"Korea, South",KOR,Gwangju,1490092.0,Asia
Nāsik,20.0,73.7833,India,IND,Mahārāshtra,1486053.0,Asia
Porto Alegre,-30.0328,-51.23,Brazil,BRA,Rio Grande do Sul,1484941.0,South America
Valencia,10.1667,-68.0,Venezuela,VEN,Carabobo,1484430.0,South America
Onitsha,6.1667,6.7833,Nigeria,NGA,Anambra,1483000.0,Africa
Virginia Beach,36.7335,-76.0435,United States,USA,Virginia,1478868.0,North America
Daejeon,36.351,127.385,"Korea, South",KOR,Daejeon,1475221.0,Asia
Munich,48.1372,11.5755,Germany,DEU,Bavaria,1471508.0,Europe
Auckland,-36.85,174.7833,New Zealand,NZL,Auckland,1470100.0,Oceania
Yekaterinburg,56.8356,60.6128,Russia,RUS,Sverdlovskaya Oblast’,1468833.0,Europe
Huangshan,29.7132,118.3151,China,CHN,Anhui,1470000.0,Asia
Huazhou,32.6889,112.0447,China,CHN,Henan,1468061.0,Asia
Shīrāz,29.61,52.5425,Iran,IRN,Fārs,1460665.0,Asia
Pizhou,34.3422,118.0097,China,CHN,Jiangsu,1458038.0,Asia
Palembang,-2.9833,104.7644,Indonesia,IDN,Sumatera Selatan,1452456.0,Asia
León de los Aldama,21.1167,-101.6833,Mexico,MEX,Guanajuato,1454793.0,North America
El Kelaa des Srarhna,32.05,-7.4,Morocco,MAR,Marrakech-Safi,1450021.0,Africa
Kharkiv,50.0,36.2292,Ukraine,UKR,Kharkivs’ka Oblast’,1446107.0,Europe
Kawanakajima,35.53,139.705,Japan,JPN,Kanagawa,1437266.0,Asia
Yangshe,31.8775,120.5512,China,CHN,Jiangsu,1432044.0,Asia
Chizhou,30.6583,117.4849,China,CHN,Anhui,1430000.0,Asia
Guyuan,36.008,106.2782,China,CHN,Ningxia,1426000.0,Asia
Rui’an,27.778,120.6526,China,CHN,Zhejiang,1424667.0,Asia
Birstall,52.6736,-1.12,United Kingdom,GBR,Leicester,1424216.0,Europe
Muscat,23.6139,58.5922,Oman,OMN,Masqaţ,1421409.0,Asia
Hebi,35.7497,114.2887,China,CHN,Henan,1419000.0,Asia
Bronx,40.8501,-73.8662,United States,USA,New York,1418207.0,North America
Gaozhou,21.9135,110.8481,China,CHN,Guangdong,1414100.0,Asia
The Hague,52.0767,4.2986,Netherlands,NLD,Zuid-Holland,1406000.0,Europe
Owerri,5.4833,7.0333,Nigeria,NGA,Imo,1401873.0,Africa
Sharjah,25.3575,55.3919,United Arab Emirates,ARE,Ash Shāriqah,1400000.0,Asia
Farīdābād,28.4333,77.3167,India,IND,Haryāna,1394000.0,Asia
Ulaanbaatar,47.9203,106.9172,Mongolia,MNG,Ulaanbaatar,1396288.0,Asia
Goiânia,-16.6806,-49.2564,Brazil,BRA,Goiás,1393575.0,South America
Kayseri,38.7333,35.4833,Turkey,TUR,Kayseri,1389680.0,Europe
Yueqing,28.1188,120.9621,China,CHN,Zhejiang,1389332.0,Asia
Belgrade,44.8167,20.4667,Serbia,SRB,Beograd,1378682.0,Europe
Pingdu,36.7833,119.9556,China,CHN,Shandong,1378900.0,Asia
Milan,45.4669,9.19,Italy,ITA,Lombardy,1366180.0,Europe
Aurangābād,19.88,75.32,India,IND,Mahārāshtra,1371330.0,Asia
Yutan,28.3147,112.554,China,CHN,Hunan,1368117.0,Asia
Wenling,28.3797,121.3718,China,CHN,Zhejiang,1366794.0,Asia
Milwaukee,43.0642,-87.9673,United States,USA,Wisconsin,1365787.0,North America
Sofia,42.6979,23.3217,Bulgaria,BGR,Sofia-Grad,1355142.0,Europe
Adelaide,-34.9289,138.6011,Australia,AUS,South Australia,1345777.0,Oceania
Prague,50.0833,14.4167,Czechia,CZE,"Praha, Hlavní Město",1335084.0,Europe
Samsun,41.2867,36.33,Turkey,TUR,Samsun,1335716.0,Europe
Rājkot,22.2969,70.7984,India,IND,Gujarāt,1335397.0,Asia
Liangshi,27.2578,111.7351,China,CHN,Hunan,1335900.0,Asia
Khulna,22.8167,89.55,Bangladesh,BGD,Khulna,1311100.0,Asia
Córdoba,-31.4167,-64.1833,Argentina,ARG,Córdoba,1329604.0,South America
Guarulhos,-23.4667,-46.5333,Brazil,BRA,São Paulo,1324781.0,South America
Juárez,31.7386,-106.487,Mexico,MEX,Chihuahua,1321004.0,North America
Saitama,35.8617,139.6453,Japan,JPN,Saitama,1320571.0,Asia
Montevideo,-34.8667,-56.1667,Uruguay,URY,Montevideo,1319108.0,South America
Mbuji-Mayi,-6.1209,23.5967,Congo (Kinshasa),COD,Kasaï Oriental,1295000.0,Africa
Fuqing,25.7232,119.3735,China,CHN,Fujian,1316000.0,Asia
Xintai,35.91,117.78,China,CHN,Shandong,1315942.0,Asia
Doha,25.3,51.5333,Qatar,QAT,Ad Dawḩah,1312947.0,Asia
Hiroshima,34.4,132.45,Japan,JPN,Hiroshima,1306589.0,Asia
Meerut,28.99,77.7,India,IND,Uttar Pradesh,1305429.0,Asia
Yushu,44.8249,126.5451,China,CHN,Jilin,1304436.0,Asia
Rongcheng,26.2312,104.0966,China,CHN,Yunnan,1302891.0,Asia
Huazhou,21.654,110.6294,China,CHN,Guangdong,1302100.0,Asia
Yangquan,37.8576,113.5762,China,CHN,Shanxi,1300000.0,Asia
Haicheng,40.8523,122.7474,China,CHN,Liaoning,1293877.0,Asia
Yingtan,28.2333,117.0,China,CHN,Jiangxi,1288615.0,Asia
Huaiyin,33.58,119.03,China,CHN,Jiangsu,1264000.0,Asia
Wuzhong,37.9874,106.1919,China,CHN,Ningxia,1284000.0,Asia
Barranquilla,10.9639,-74.7964,Colombia,COL,Atlántico,1274250.0,South America
Jabalpur,23.1667,79.9333,India,IND,Madhya Pradesh,1267564.0,Asia
Thāne,19.18,72.9633,India,IND,Mahārāshtra,1261517.0,Asia
Zhangye,38.9355,100.4553,China,CHN,Gansu,1270000.0,Asia
Rucheng,32.3852,120.5634,China,CHN,Jiangsu,1267066.0,Asia
Nizhniy Novgorod,56.3269,44.0075,Russia,RUS,Nizhegorodskaya Oblast’,1264075.0,Europe
Comayagüela,14.0833,-87.2167,Honduras,HND,Francisco Morazán,1250000.0,North America
Shaoyang,32.9387,119.8404,China,CHN,Jiangsu,1253548.0,Asia
Dhanbād,23.7928,86.435,India,IND,Jharkhand,1246000.0,Asia
Yichun,47.7235,128.8893,China,CHN,Heilongjiang,1250000.0,Asia
Laiwu,36.1833,117.6667,China,CHN,Shandong,1248636.0,Asia
Jingling,30.6667,113.1667,China,CHN,Hubei,1247400.0,Asia
Kazan,55.7908,49.1144,Russia,RUS,Tatarstan,1243500.0,Europe
Dayan,26.8808,100.2208,China,CHN,Yunnan,1244769.0,Asia
Suwon,37.2858,127.01,"Korea, South",KOR,Gyeonggi,1234300.0,Asia
Jiangyin,31.9087,120.2653,China,CHN,Jiangsu,1241045.0,Asia
Yongcheng,33.9317,116.4459,China,CHN,Henan,1240382.0,Asia
Calgary,51.05,-114.0667,Canada,CAN,Alberta,1239220.0,North America
Cần Thơ,10.0333,105.7833,Vietnam,VNM,Cần Thơ,1237300.0,Asia
Abuja,9.0556,7.4914,Nigeria,NGA,Federal Capital Territory,1235880.0,Africa
Yiwu,29.3081,120.0698,China,CHN,Zhejiang,1234015.0,Asia
Mandalay,21.9769,96.0869,Myanmar,MMR,Mandalay,1225546.0,Asia
Beidao,34.6,105.92,China,CHN,Gansu,1225000.0,Asia
Al Başrah,30.4889,47.81,Iraq,IRQ,Al Başrah,1225793.0,Asia
Shuangshui,26.5944,104.8333,China,CHN,Guizhou,1221000.0,Asia
Vila Velha,3.2167,-51.2167,Brazil,BRA,Amapá,1209091.0,South America
Allahābād,25.455,81.84,India,IND,Uttar Pradesh,1201000.0,Asia
Vārānasi,25.3189,83.0128,India,IND,Uttar Pradesh,1198491.0,Asia
Chelyabinsk,55.15,61.4,Russia,RUS,Chelyabinskaya Oblast’,1202371.0,Europe
Mombasa,-4.05,39.6667,Kenya,KEN,Mombasa,1200000.0,Africa
Providence,41.823,-71.4187,United States,USA,Rhode Island,1203230.0,North America
Qom,34.6461,50.8789,Iran,IRN,Qom,1201158.0,Asia
Maiduguri,11.8333,13.15,Nigeria,NGA,Borno,1197497.0,Africa
Maputo,-25.9153,32.5764,Mozambique,MOZ,Maputo,1191613.0,Africa
Rosario,-32.9575,-60.6394,Argentina,ARG,Santa Fe,1193605.0,South America
Benin City,6.3176,5.6145,Nigeria,NGA,Edo,1190000.0,Africa
Xinyu,27.795,114.9242,China,CHN,Jiangxi,1186700.0,Asia
Pikine,14.75,-17.4,Senegal,SEN,Dakar,1170791.0,Africa
Ahvāz,31.3203,48.6692,Iran,IRN,Khūzestān,1184788.0,Asia
Dublin,53.3497,-6.2603,Ireland,IRL,Dublin,1173179.0,Europe
Jacksonville,30.3322,-81.6749,United States,USA,Florida,1181496.0,North America
Medina,24.4667,39.6,Saudi Arabia,SAU,Al Madīnah al Munawwarah,1180770.0,Asia
Srīnagar,34.0911,74.8061,India,IND,Jammu and Kashmīr,1180570.0,Asia
Omsk,54.9667,73.3833,Russia,RUS,Omskaya Oblast’,1178391.0,Europe
Cilacap,-7.7167,109.017,Indonesia,IDN,Jawa Tengah,1174964.0,Asia
Bandar Lampung,-5.4294,105.2625,Indonesia,IDN,Lampung,1166761.0,Asia
Samara,53.1833,50.1167,Russia,RUS,Samarskaya Oblast’,1169719.0,Europe
Guankou,28.1417,113.625,China,CHN,Hunan,1168056.0,Asia
Ulsan,35.55,129.3167,"Korea, South",KOR,Ulsan,1166033.0,Asia
Dingzhou,38.5158,114.9845,China,CHN,Hebei,1165182.0,Asia
Campinas,-22.9009,-47.0573,Brazil,BRA,São Paulo,1164098.0,South America
Lianyuan,27.6961,111.6659,China,CHN,Hunan,1162928.0,Asia
Rongcheng,29.8239,112.9019,China,CHN,Hubei,1162770.0,Asia
Kaiyuan,36.0656,113.8153,China,CHN,Henan,1160000.0,Asia
Nay Pyi Taw,19.7475,96.115,Myanmar,MMR,Nay Pyi Taw,1160242.0,Asia
Dakar,14.7319,-17.4572,Senegal,SEN,Dakar,1146053.0,Africa
Zhuji,29.7169,120.2314,China,CHN,Zhejiang,1157938.0,Asia
Kigali,-1.9536,30.0606,Rwanda,RWA,Kigali,1156663.0,Africa
Zapopan,20.7167,-103.4,Mexico,MEX,Jalisco,1155790.0,North America
Leiyang,26.4179,112.8457,China,CHN,Hunan,1151554.0,Asia
Santiago,19.45,-70.7,Dominican Republic,DOM,Cibao Norte,1142947.0,North America
Dadukou,26.5849,101.7149,China,CHN,Sichuan,1144000.0,Asia
Xiantao,30.3833,113.4,China,CHN,Hubei,1140100.0,Asia
Amritsar,31.6167,74.85,India,IND,Punjab,1132383.0,Asia
Callao,-12.0611,-77.1333,Peru,PER,Callao,1129854.0,South America
Alīgarh,27.88,78.08,India,IND,Uttar Pradesh,1131160.0,Asia
Yingchuan,34.1511,113.4733,China,CHN,Henan,1131896.0,Asia
Tegucigalpa,14.0942,-87.2067,Honduras,HND,Francisco Morazán,1126534.0,North America
Ciudad Nezahualcóyotl,19.41,-99.03,Mexico,MEX,México,1109363.0,North America
Tripoli,32.8752,13.1875,Libya,LBY,Ţarābulus,1126000.0,Africa
Rostov,47.2333,39.7167,Russia,RUS,Rostovskaya Oblast’,1125299.0,Europe
Nezahualcóyotl,19.4,-98.9889,Mexico,MEX,México,1110565.0,North America
Bhiwandi,19.3,73.0667,India,IND,Mahārāshtra,1125898.0,Asia
Zhoushan,30.0162,122.0988,China,CHN,Zhejiang,1121261.0,Asia
Tbilisi,41.7225,44.7925,Georgia,GEO,Tbilisi,1118035.0,Asia
Ufa,54.7333,55.9667,Russia,RUS,Bashkortostan,1115560.0,Europe
Fès,34.0433,-5.0033,Morocco,MAR,Fès-Meknès,1112072.0,Africa
Sevilla,37.39,-5.99,Spain,ESP,Andalusia,1107000.0,Europe
Mexicali,32.6633,-115.4678,Mexico,MEX,Baja California,1102342.0,North America
Biên Hòa,10.9277,106.8681,Vietnam,VNM,Đồng Nai,1104000.0,Asia
Gwalior,26.215,78.1931,India,IND,Madhya Pradesh,1101981.0,Asia
Ankang,32.6877,109.0235,China,CHN,Shaanxi,1100000.0,Asia
Ikare,7.5304,5.76,Nigeria,NGA,Ondo,1099931.0,Africa
Huambo,-12.7667,15.7333,Angola,AGO,Huambo,1100000.0,Africa
Hegang,47.3139,130.2775,China,CHN,Heilongjiang,1100000.0,Asia
Salt Lake City,40.7777,-111.9306,United States,USA,Utah,1098526.0,North America
Bhilai,21.2167,81.4333,India,IND,Chhattīsgarh,1097000.0,Asia
Yuyao,30.0372,121.1546,China,CHN,Zhejiang,1095000.0,Asia
N’Djamena,12.11,15.05,Chad,TCD,Ville de N’Djaména,1092066.0,Africa
Hanchuan,30.652,113.8274,China,CHN,Hubei,1092700.0,Asia
Gongzhuling,43.5036,124.8088,China,CHN,Jilin,1092692.0,Asia
Irbid,32.5556,35.85,Jordan,JOR,Irbid,1088100.0,Asia
Hāora,22.59,88.31,India,IND,West Bengal,1077075.0,Asia
Cologne,50.9422,6.9578,Germany,DEU,North Rhine-Westphalia,1085664.0,Europe
Krasnoyarsk,56.0167,92.8667,Russia,RUS,Krasnoyarskiy Kray,1083865.0,Europe
Yicheng,31.3697,119.8239,China,CHN,Jiangsu,1082929.0,Asia
São Gonçalo,-22.8269,-43.0539,Brazil,BRA,Rio de Janeiro,1077687.0,South America
Nashville,36.1715,-86.7843,United States,USA,Tennessee,1081903.0,North America
Yerevan,40.1814,44.5144,Armenia,ARG,Yerevan,1075800.0,Asia
Rānchi,23.3556,85.3347,India,IND,Jharkhand,1073440.0,Asia
Nur-Sultan,51.1333,71.4333,Kazakhstan,KAZ,Astana,1078362.0,Asia
Nouakchott,18.0858,-15.9785,Mauritania,MRT,,1077169.0,Africa
Vereeniging,-26.6736,27.9319,South Africa,ZAF,Gauteng,1074000.0,Africa
Richmond,37.5295,-77.4756,United States,USA,Virginia,1075798.0,North America
São Luís,-2.53,-44.3028,Brazil,BRA,Maranhão,1073893.0,South America
San Pedro Sula,15.5,-88.0333,Honduras,HND,Cortés,1073824.0,North America
Taixing,32.1724,120.0142,China,CHN,Jiangsu,1073921.0,Asia
Memphis,35.1046,-89.9773,United States,USA,Tennessee,1066967.0,North America
Goyang,37.6564,126.835,"Korea, South",KOR,Gyeonggi,1061929.0,Asia
Bezwāda,16.5167,80.6167,India,IND,Andhra Pradesh,1048240.0,Asia
Edmonton,53.5344,-113.4903,Canada,CAN,Alberta,1062643.0,North America
Mizhou,35.99,119.3801,China,CHN,Shandong,1060000.0,Asia
Tunis,36.8008,10.18,Tunisia,TUN,Tunis,1056247.0,Africa
Xishan,27.6609,113.4946,China,CHN,Hunan,1060000.0,Asia
Ezhou,30.3972,114.8842,China,CHN,Hubei,1059700.0,Asia
Barquisimeto,10.0678,-69.3467,Venezuela,VEN,Lara,1059092.0,South America
Sendai,38.2683,140.8694,Japan,JPN,Miyagi,1058070.0,Asia
Voronezh,51.6717,39.2106,Russia,RUS,Voronezhskaya Oblast’,1047549.0,Europe
Perm,58.0139,56.2489,Russia,RUS,Permskiy Kray,1048005.0,Europe
Changwon,35.2281,128.6811,"Korea, South",KOR,Gyeongnam,1046054.0,Asia
Zhongwei,37.5139,105.1884,China,CHN,Ningxia,1046000.0,Asia
Shouguang,36.8833,118.7333,China,CHN,Shandong,1039205.0,Asia
Bogor,-6.6,106.8,Indonesia,IDN,Jawa Barat,1030720.0,Asia
Raleigh,35.8325,-78.6435,United States,USA,North Carolina,1038738.0,North America
Cartagena,10.4236,-75.5253,Colombia,COL,Bolívar,1036412.0,South America
Chandīgarh,30.7353,76.7911,India,IND,Chandīgarh,1026459.0,Asia
Bishkek,42.8667,74.5667,Kyrgyzstan,KGZ,Bishkek,1027200.0,Asia
Matola,-25.9667,32.4667,Mozambique,MOZ,Maputo,1032197.0,Africa
Ogbomoso,8.1333,4.25,Nigeria,NGA,Oyo,1032000.0,Africa
Ashgabat,37.95,58.3833,Turkmenistan,TKM,Ahal,1031992.0,Asia
Maceió,-9.6658,-35.735,Brazil,BRA,Alagoas,1029129.0,South America
Niamey,13.5086,2.1111,Niger,NER,Niamey,1026848.0,Africa
Managua,12.15,-86.2667,Nicaragua,NIC,Managua,1028808.0,North America
Patam,1.0678,104.0167,Indonesia,IDN,Kepulauan Riau,1029808.0,Asia
Tekirdağ,40.9833,27.5167,Turkey,TUR,Tekirdağ,1029927.0,Europe
Shubrā al Khaymah,30.1286,31.2422,Egypt,EGY,Al Qalyūbīyah,1025569.0,Africa
Linhai,28.8523,121.1409,China,CHN,Zhejiang,1028813.0,Asia
Monrovia,6.3106,-10.8047,Liberia,LBR,Montserrado,1021762.0,Africa
Wafangdian,39.6271,121.9972,China,CHN,Liaoning,1024876.0,Asia
Zhongxiang,31.169,112.5853,China,CHN,Hubei,1022514.0,Asia
Odesa,46.4775,30.7326,Ukraine,UKR,Odes’ka Oblast’,1017699.0,Europe
Shymkent,42.3,69.6,Kazakhstan,KAZ,Ongtüstik Qazaqstan,1018974.0,Asia
New Orleans,30.0687,-89.9288,United States,USA,Louisiana,1020886.0,North America
Thủ Đức,10.8199,106.7909,Vietnam,VNM,Hồ Chí Minh,1013795.0,Asia
Volgograd,48.7086,44.5147,Russia,RUS,Volgogradskaya Oblast’,1015586.0,Europe
Port-au-Prince,18.5425,-72.3386,Haiti,HTI,Ouest,987310.0,North America
Islamabad,33.6989,73.0369,Pakistan,PAK,Islāmābād,1014825.0,Asia
Mysore,12.3086,76.6531,India,IND,Karnātaka,1014227.0,Asia
Xinyi,22.3559,110.9369,China,CHN,Guangdong,1013900.0,Asia
Kathmandu,27.7167,85.3667,Nepal,NPL,Bāgmatī,975453.0,Asia
Raipur,21.2379,81.6337,India,IND,Chhattīsgarh,1010087.0,Asia
Nice,43.7034,7.2663,France,FRA,Provence-Alpes-Côte d’Azur,1006402.0,Europe
Arequipa,-16.3988,-71.5369,Peru,PER,Arequipa,1008290.0,South America
Port Harcourt,4.75,7.0,Nigeria,NGA,Rivers,1005904.0,Africa
Louisville,38.1663,-85.6485,United States,USA,Kentucky,1005654.0,North America
Zaoyang,32.1287,112.7581,China,CHN,Hubei,1004741.0,Asia
Shuizhai,33.4433,114.8994,China,CHN,Henan,1003698.0,Asia
Dnipro,48.45,34.9833,Ukraine,UKR,Dnipropetrovs’ka Oblast’,1002111.0,Europe
Kota,25.18,75.83,India,IND,Rājasthān,1001694.0,Asia
Quetta,30.192,67.007,Pakistan,PAK,Balochistān,1001205.0,Asia
Abu Dhabi,24.4781,54.3686,United Arab Emirates,ARE,Abū Z̧aby,1000000.0,Asia
Stockholm,59.3294,18.0686,Sweden,SWE,Stockholm,972647.0,Europe
Ottawa,45.4247,-75.695,Canada,CAN,Ontario,989567.0,North America
Asmara,15.3333,38.9167,Eritrea,ERI,Ma’ākel,963000.0,Africa
Freetown,8.4833,-13.2331,Sierra Leone,SLE,Western Area,951000.0,Africa
Jerusalem,31.7833,35.2167,Israel,ISR,Southern,919438.0,Asia
Bangui,4.3732,18.5628,Central African Republic,CAF,Bangui,889231.0,Africa
Panama City,9.0,-79.5,Panama,PAN,Panamá,880691.0,North America
Amsterdam,52.3667,4.8833,Netherlands,NLD,Noord-Holland,862965.0,Europe
Lomé,6.1319,1.2228,Togo,TGO,Maritime,837437.0,Africa
Libreville,0.3901,9.4544,Gabon,GAB,Estuaire,797003.0,Africa
Zagreb,45.8,15.95,Croatia,HRV,"Zagreb, Grad",790017.0,Europe
Dushanbe,38.5731,68.7864,Tajikistan,TJK,Dushanbe,778500.0,Asia
Lilongwe,-13.9833,33.7833,Malawi,MWI,Lilongwe,781538.0,Africa
Cotonou,6.4,2.52,Benin,BEN,Littoral,762000.0,Africa
Vientiane,17.9667,102.6,Laos,LAO,Viangchan,760000.0,Asia
Colombo,6.9167,79.8333,Sri Lanka,LKA,Western,752993.0,Asia
Pretoria,-25.7464,28.1881,South Africa,ZAF,Gauteng,741651.0,Africa
Winnipeg,49.8844,-97.1464,Canada,CAN,Manitoba,705244.0,North America
Quebec City,46.8139,-71.2081,Canada,CAN,Quebec,705103.0,North America
Oslo,59.9111,10.7528,Norway,NOR,Oslo,693494.0,Europe
Athens,37.9842,23.7281,Greece,GRC,Attikí,664046.0,Europe
Bujumbura,-3.3825,29.3611,Burundi,BDI,Bujumbura Mairie,658859.0,Africa
Helsinki,60.1756,24.9342,Finland,FIN,Uusimaa,642045.0,Europe
Skopje,41.9833,21.4333,Macedonia,MKD,Skopje,640000.0,Europe
Chisinau,47.0228,28.8353,Moldova,MDA,Chişinău,639000.0,Europe
Riga,56.9475,24.1069,Latvia,LVA,Rīga,614618.0,Europe
Copenhagen,55.6761,12.5689,Denmark,DNK,Hovedstaden,602481.0,Europe
Kingston,17.9714,-76.7931,Jamaica,JAM,Kingston,580000.0,North America
Rabat,34.0253,-6.8361,Morocco,MAR,Rabat-Salé-Kénitra,572717.0,Africa
Vilnius,54.6833,25.2833,Lithuania,LTU,Vilniaus Miestas,574147.0,Europe
San Salvador,13.6989,-89.1914,El Salvador,SLV,San Salvador,567698.0,North America
Djibouti,11.595,43.1481,Djibouti,DJI,Djibouti,562000.0,Africa
Lisbon,38.7452,-9.1604,Portugal,PRT,Lisboa,506654.0,Europe
Kitchener,43.4186,-80.4728,Canada,CAN,Ontario,470015.0,North America
Tallinn,59.4372,24.745,Estonia,EST,Harjumaa,438341.0,Europe
Cape Town,-33.925,18.425,South Africa,ZAF,Western Cape,433688.0,Africa
Bratislava,48.1447,17.1128,Slovakia,SVK,Bratislavský,429564.0,Europe
Tirana,41.33,19.82,Albania,ALB,Tiranë,418495.0,Europe
Canberra,-35.2931,149.1269,Australia,AUS,Australian Capital Territory,426704.0,Oceania
Wellington,-41.2889,174.7772,New Zealand,NZL,Wellington,418500.0,Oceania
Beirut,33.8869,35.5131,Lebanon,LBN,Beyrouth,361366.0,Asia
Dodoma,-6.1835,35.746,Tanzania,TZA,Dodoma,410956.0,Africa
Halifax,44.6475,-63.5906,Canada,CAN,Nova Scotia,403131.0,North America
Bissau,11.8592,-15.5956,Guinea-Bissau,GNB,Bissau,395954.0,Africa
Juba,4.85,31.6,South Sudan,SSD,Central Equatoria,372410.0,
Port Moresby,-9.4789,147.1494,Papua New Guinea,PNG,National Capital,364125.0,Oceania
Yamoussoukro,6.8161,-5.2742,Côte D’Ivoire,CIV,Yamoussoukro,355573.0,Africa
Victoria,48.4283,-123.3647,Canada,CAN,British Columbia,335696.0,North America
Maseru,-29.31,27.48,Lesotho,LSO,Maseru,330790.0,Africa
Nicosia,35.1725,33.365,Cyprus,CYP,Lefkosía,330000.0,Asia
Windhoek,-22.57,17.0836,Namibia,NAM,Khomas,322500.0,Africa
Porto-Novo,6.4833,2.6167,Benin,BEN,Ouémé,300000.0,Africa
Sucre,-19.0431,-65.2592,Bolivia,BOL,Chuquisaca,300000.0,South America
San José,9.9333,-84.0833,Costa Rica,CRI,San José,288054.0,North America
Ljubljana,46.05,14.5167,Slovenia,SVN,Ljubljana,286745.0,Europe
Sarajevo,43.8667,18.4167,Bosnia And Herzegovina,BIH,"Bosnia and Herzegovina, Federation of",275524.0,Europe
Nassau,25.0667,-77.3333,"Bahamas, The",BHS,,274400.0,North America
Bloemfontein,-29.1,26.2167,South Africa,ZAF,Free State,256185.0,Africa
Fort-de-France,14.6104,-61.08,Martinique,MTQ,,253995.0,North America
Gaborone,-24.6569,25.9086,Botswana,BWA,Gaborone,231626.0,Africa
Paramaribo,5.8667,-55.1667,Suriname,SUR,Paramaribo,223757.0,South America
Dili,-8.5586,125.5736,Timor-Leste,TLS,Díli,222323.0,
Pristina,42.6667,21.1667,Kosovo,XKS,Prishtinë,204725.0,
Georgetown,6.7833,-58.1667,Guyana,GUY,Demerara-Mahaica,200500.0,South America
Malabo,3.7521,8.7737,Equatorial Guinea,GNQ,Bioko Norte,187302.0,Africa
Gibraltar,36.1324,-5.3781,Gibraltar,GIB,,187083.0,Europe
Saint-Denis,-20.8789,55.4481,Reunion,REU,,190047.0,Africa
Male,4.175,73.5083,Maldives,MDV,Maale,133019.0,Asia
Podgorica,42.4397,19.2661,Montenegro,MNE,Podgorica,174515.0,Europe
Manama,26.225,50.5775,Bahrain,BHR,Al ‘Āşimah,157474.0,Asia
Port Louis,-20.1667,57.5,Mauritius,MUS,Port Louis,149194.0,Africa
Willemstad,12.108,-68.935,Curaçao,CUW,,150000.0,
New Delhi,28.7,77.2,India,IND,Delhi,142004.0,Asia
Bern,46.948,7.4474,Switzerland,CHE,Bern,133798.0,Europe
Papeete,-17.5334,-149.5667,French Polynesia,PYF,Îles du Vent,131695.0,Oceania
Reykjavík,64.1475,-21.935,Iceland,ISL,,128793.0,Europe
Praia,14.9177,-23.5092,Cabo Verde,CPV,Praia,127832.0,Africa
Luxembourg,49.6106,6.1328,Luxembourg,LUX,Luxembourg,124509.0,Europe
Sri Jayewardenepura Kotte,6.9,79.9164,Sri Lanka,LKA,Western,115826.0,Asia
Bridgetown,13.0975,-59.6167,Barbados,BRB,Saint Michael,110000.0,North America
Moroni,-11.7036,43.2536,Comoros,COM,Grande Comore,111329.0,Africa
Thimphu,27.4833,89.6333,Bhutan,BTN,Thimphu,104000.0,Asia
Mbabane,-26.3208,31.1617,Swaziland,SWZ,Hhohho,94874.0,Africa
Nouméa,-22.2625,166.4443,New Caledonia,NCL,Province Sud,93060.0,Oceania
Honiara,-9.4333,159.95,Solomon Islands,SLB,Honiara,84520.0,Oceania
Suva,-18.1333,178.4333,Fiji,FJI,Rewa,88271.0,Oceania
Castries,14.0167,-60.9833,Saint Lucia,LCA,Castries,70000.0,North America
Cayenne,4.933,-52.33,French Guiana,GUF,,61550.0,South America
São Tomé,0.3333,6.7333,Sao Tome And Principe,STP,São Tomé,56166.0,Africa
Port-Vila,-17.7333,168.3167,Vanuatu,VUT,Shefa,51437.0,Oceania
Hamilton,32.2942,-64.7839,Bermuda,BMU,Hamilton,52320.0,North America
Bandar Seri Begawan,4.9167,114.9167,Brunei,BRN,Brunei and Muara,50000.0,Asia
Monaco,43.7396,7.4069,Monaco,MCO,,36371.0,Europe
Gitega,-3.4264,29.9306,Burundi,BDI,Gitega,41944.0,Africa
Port of Spain,10.6667,-61.5167,Trinidad And Tobago,TTO,Port of Spain,37074.0,North America
Apia,-13.8333,-171.8333,Samoa,WSM,Tuamasaga,37708.0,Oceania
Douglas,54.15,-4.4819,Isle Of Man,IMN,,35854.0,Europe
Oranjestad,12.5186,-70.0358,Aruba,ABW,,34980.0,North America
Saint Helier,49.1833,-2.1167,Jersey,JEY,,33522.0,Europe
Vaduz,47.1415,9.5215,Liechtenstein,LIE,Vaduz,36281.0,Europe
Banjul,13.4531,-16.5775,"Gambia, The",GMB,Banjul,31356.0,Africa
Mamoudzou,-12.7871,45.275,Mayotte,MYT,,32057.0,Africa
Majuro,7.0918,171.3802,Marshall Islands,MHL,Majuro,30000.0,Oceania
Tarawa,1.3382,173.0176,Kiribati,KIR,,28802.0,Oceania
George Town,19.2866,-81.3744,Cayman Islands,CYM,,27704.0,North America
Victoria,-4.6236,55.4544,Seychelles,SYC,English River,26450.0,Africa
Kingstown,13.1667,-61.2333,Saint Vincent And The Grenadines,VCT,Saint George,25000.0,North America
Saint John’s,17.1211,-61.8447,Antigua And Barbuda,ATG,Saint John,21926.0,North America
Nuku‘alofa,-21.1347,-175.2083,Tonga,TON,Tongatapu,23221.0,Oceania
Andorra la Vella,42.5,1.5,Andorra,AND,Andorra la Vella,22151.0,Europe
Nuuk,64.175,-51.7333,Greenland,GRL,Sermersooq,18326.0,North America
Belmopan,17.25,-88.7675,Belize,BLZ,Cayo,17222.0,North America
Roseau,15.3,-61.3833,Dominica,DMA,Saint George,16582.0,North America
Basseterre,17.2983,-62.7342,Saint Kitts And Nevis,KNA,Saint George Basseterre,13220.0,North America
Tórshavn,62.0,-6.7833,Faroe Islands,FRO,,13326.0,Europe
Pago Pago,-14.274,-170.7046,American Samoa,ASM,,12576.0,
Valletta,35.8978,14.5125,Malta,MLT,Valletta,6444.0,Europe
Gaza,31.5069,34.456,Gaza Strip,XGZ,,,
Grand Turk,21.4664,-71.136,Turks And Caicos Islands,TCA,,5801.0,North America
Palikir,6.9178,158.185,"Micronesia, Federated States Of",FSM,Pohnpei,6227.0,Oceania
Funafuti,-8.5167,179.2167,Tuvalu,TUV,Funafuti,6025.0,Oceania
Lobamba,-26.4465,31.2064,Swaziland,SWZ,Hhohho,5800.0,Africa
Avarua,-21.207,-159.771,Cook Islands,COK,,5445.0,Oceania
Saint George’s,12.0444,-61.7417,Grenada,GRD,Saint George,4315.0,North America
San Marino,43.932,12.4484,San Marino,SMR,San Marino Città,4040.0,Europe
Al Quds,31.7764,35.2269,West Bank,XWB,,,
Capitol Hill,15.2137,145.7546,Northern Mariana Islands,MNP,,2500.0,Oceania
Basse-Terre,16.0,-61.7167,Guadeloupe,GLP,,,North America
Stanley,-51.7,-57.85,Falkland Islands (Islas Malvinas),FLK,,2213.0,South America
Vatican City,41.9,12.4478,Vatican City,VAT,,825.0,
Alofi,-19.056,-169.921,Niue,NIU,,1611.0,Oceania
Hagåtña,13.4745,144.7504,Guam,GUM,,1051.0,
Jamestown,-15.9251,-5.7179,"Saint Helena, Ascension, And Tristan Da Cunha",SHN,Saint Helena,714.0,Africa
Marigot,18.0706,-63.0847,Saint Martin,MAF,,,
Philipsburg,18.0256,-63.0492,Sint Maarten,SXM,,,
Road Town,18.4167,-64.6167,"Virgin Islands, British",VGB,,,North America
Gustavia,17.8958,-62.8508,Saint Barthelemy,BLM,,,
Saint-Pierre,46.7811,-56.1764,Saint Pierre And Miquelon,SPM,,,North America
The Valley,18.2167,-63.05,Anguilla,AIA,,,North America
Mata-Utu,-13.2825,-176.1736,Wallis And Futuna,WLF,Uvea,,Oceania
Kingston,-29.0569,167.9617,Norfolk Island,NFK,,,Oceania
Ngerulmud,7.5006,134.6242,Palau,PLW,Melekeok,,Oceania
Tifariti,26.0928,-10.6089,Morocco,MAR,,,Africa
Tifariti,26.0928,-10.6089,Western Sahara,ESH,,,Africa
Longyearbyen,78.2167,15.6333,Svalbard,XSV,,,
Adamstown,-25.0667,-130.0833,Pitcairn Islands,PCN,,,Oceania
Flying Fish Cove,-10.4167,105.7167,Christmas Island,CXR,,,Asia
Bareilly,28.364,79.415,India,IND,Uttar Pradesh,1000000.0,Asia
Quảng Hà,16.06,108.25,Vietnam,VNM,Quảng Nam,1000000.0,Asia
Soacha,4.5781,-74.2144,Colombia,COL,Cundinamarca,995268.0,South America
Kitaku,33.8704,130.82,Japan,JPN,Fukuoka,997536.0,Asia
Jodhpur,26.2918,73.0168,India,IND,Rājasthān,995000.0,Asia
Xingcheng,24.1681,115.6669,China,CHN,Guangdong,993000.0,Asia
Dongtai,32.8534,120.3037,China,CHN,Jiangsu,990306.0,Asia
Yingcheng,24.1878,113.4042,China,CHN,Guangdong,986400.0,Asia
Al Manşūrah,31.05,31.3833,Egypt,EGY,Ad Daqahlīyah,960423.0,Africa
Glasgow,55.8609,-4.2514,United Kingdom,GBR,Glasgow City,985290.0,Europe
Chiba,35.6,140.1,Japan,JPN,Chiba,981738.0,Asia
Luocheng,22.7645,111.5745,China,CHN,Guangdong,984100.0,Asia
Danyang,31.9948,119.575,China,CHN,Jiangsu,980662.0,Asia
Natal,-6.9838,-60.2699,Brazil,BRA,Amazonas,980588.0,South America
Zhaodong,46.0635,125.9773,China,CHN,Heilongjiang,980000.0,Asia
Nada,19.5,109.5833,China,CHN,Hainan,977700.0,Asia
Xibeijie,39.737,98.5049,China,CHN,Gansu,977600.0,Asia
Kirkuk,35.4667,44.4,Iraq,IRQ,Kirkūk,975000.0,Asia
Naples,40.8333,14.25,Italy,ITA,Campania,966144.0,Europe
Wuchuan,21.4283,110.7749,China,CHN,Guangdong,972400.0,Asia
Huilong,31.8131,121.6574,China,CHN,Jiangsu,972525.0,Asia
Oklahoma City,35.4676,-97.5136,United States,USA,Oklahoma,972943.0,North America
Toulouse,43.6045,1.444,France,FRA,Occitanie,968638.0,Europe
Málaga,36.7194,-4.42,Spain,ESP,Andalusia,967250.0,Europe
Denizli,37.7731,29.0878,Turkey,TUR,Denizli,963464.0,Europe
Dispur,26.15,91.77,India,IND,Assam,957352.0,Asia
Coimbatore,11.0,76.9667,India,IND,Tamil Nādu,959823.0,Asia
Guwāhāti,26.1667,91.7667,India,IND,Assam,957352.0,Asia
Sŏngnam,37.4386,127.1378,"Korea, South",KOR,Gyeonggi,948757.0,Asia
Taishan,22.2486,112.785,China,CHN,Guangdong,953900.0,Asia
Solāpur,17.6833,75.9167,India,IND,Mahārāshtra,951558.0,Asia
Tangier,35.7767,-5.8039,Morocco,MAR,Tanger-Tétouan-Al Hoceïma,947952.0,Africa
Anqiu,36.3619,119.1072,China,CHN,Shandong,947723.0,Asia
Feicheng,36.186,116.772,China,CHN,Shandong,946627.0,Asia
Meishan,34.1736,112.839,China,CHN,Henan,936000.0,Asia
Kisangani,0.5153,25.1911,Congo (Kinshasa),COD,Tshopo,935977.0,Africa
Khartoum North,15.6333,32.6333,Sudan,SDN,Khartoum,936349.0,Africa
Aguascalientes,21.876,-102.296,Mexico,MEX,Aguascalientes,934424.0,North America
Marrakech,31.6295,-7.9811,Morocco,MAR,Marrakech-Safi,928850.0,Africa
Donetsk,48.0089,37.8042,Ukraine,UKR,Donets’ka Oblast’,929063.0,Europe
Taihecun,45.768,131.0063,China,CHN,Heilongjiang,930000.0,Asia
Trujillo,-8.1119,-79.0289,Peru,PER,La Libertad,919899.0,South America
Cebu City,10.3,123.9,Philippines,PHL,Cebu,922611.0,Asia
Taihe,30.8706,105.3784,China,CHN,Sichuan,924531.0,Asia
Bridgeport,41.1918,-73.1953,United States,USA,Connecticut,924449.0,North America
Antwerp,51.2206,4.4003,Belgium,BEL,Flanders,920000.0,Europe
Trichinopoly,10.8269,78.6928,India,IND,Tamil Nādu,916857.0,Asia
Xin’an,34.3662,118.3369,China,CHN,Jiangsu,920628.0,Asia
Padang,-0.9556,100.3606,Indonesia,IDN,Sumatera Barat,914970.0,Asia
Qingzhou,36.6967,118.4797,China,CHN,Shandong,914047.0,Asia
Buffalo,42.9016,-78.8487,United States,USA,New York,914341.0,North America
Lichuan,30.2965,108.9378,China,CHN,Hubei,913700.0,Asia
Daye,30.1003,114.9699,China,CHN,Hubei,909724.0,Asia
Fort Worth,32.7811,-97.3473,United States,USA,Texas,909585.0,North America
Hengzhou,22.6896,109.2674,China,CHN,Guangxi,908400.0,Asia
Campo Grande,-20.4686,-54.6222,Brazil,BRA,Mato Grosso do Sul,906092.0,South America
Zhuanghe,39.6896,122.9664,China,CHN,Liaoning,905852.0,Asia
Hartford,41.7661,-72.6834,United States,USA,Connecticut,905152.0,North America
Ad Dammām,26.4333,50.1,Saudi Arabia,SAU,Ash Sharqīyah,903312.0,Asia
Bucheon,37.4989,126.7831,"Korea, South",KOR,Gyeonggi,867678.0,Asia
Lhasa,29.65,91.1,China,CHN,Tibet,902500.0,Asia
Homs,34.7333,36.7167,Syria,SYR,Ḩimş,900492.0,Asia
Jiaozhou,36.2481,119.9625,China,CHN,Shandong,900500.0,Asia
Mérida,20.97,-89.62,Mexico,MEX,Yucatán,892363.0,North America
Yangchun,22.1717,111.7846,China,CHN,Guangdong,891800.0,Asia
Concepción,-36.82,-73.0445,Chile,CHL,Biobío,889725.0,South America
Dengtalu,36.08,114.35,China,CHN,Henan,887000.0,Asia
Hubli,15.36,75.125,India,IND,Karnātaka,890000.0,Asia
Abeokuta,7.15,3.35,Nigeria,NGA,Ogun,888924.0,Africa
Tucson,32.1545,-110.8782,United States,USA,Arizona,888486.0,North America
Krasnodar,45.0333,38.9833,Russia,RUS,Krasnodarskiy Kray,881476.0,Europe
Natal,-5.795,-35.2089,Brazil,BRA,Rio Grande do Norte,877662.0,South America
Chihuahua,28.6353,-106.0889,Mexico,MEX,Chihuahua,878062.0,North America
Klang,3.0333,101.45,Malaysia,MYS,Selangor,878000.0,Asia
Turin,45.0667,7.7,Italy,ITA,Piedmont,870952.0,Europe
Jos,9.9333,8.8833,Nigeria,NGA,Plateau,873943.0,Africa
Laiyang,36.9758,120.7136,China,CHN,Shandong,874127.0,Asia
Jalandhar,31.3256,75.5792,India,IND,Punjab,873725.0,Asia
Sale,34.05,-6.8167,Morocco,MAR,Rabat-Salé-Kénitra,850403.0,Africa
Marseille,43.2964,5.37,France,FRA,Provence-Alpes-Côte d’Azur,870018.0,Europe
Kaifeng Chengguanzhen,34.85,114.35,China,CHN,Henan,872000.0,Asia
Eskişehir,39.7767,30.5206,Turkey,TUR,Eskişehir,871187.0,Europe
Gaomi,36.3833,119.75,China,CHN,Shandong,868715.0,Asia
Teresina,-5.0949,-42.8042,Brazil,BRA,Piauí,868075.0,South America
Ipoh,4.6,101.07,Malaysia,MYS,Perak,866772.0,Asia
Hai’an,32.532,120.4604,China,CHN,Jiangsu,866337.0,Asia
Liverpool,53.4,-2.9833,United Kingdom,GBR,Liverpool,864122.0,Europe
Zamboanga City,6.9167,122.0833,Philippines,PHL,Zamboanga,861799.0,Asia
Oran,35.6969,-0.6331,Algeria,DZA,Oran,852000.0,Africa
Southampton,50.9,-1.4,United Kingdom,GBR,Southampton,855569.0,Europe
Weichanglu,37.1792,119.9333,China,CHN,Shandong,859424.0,Asia
Pekanbaru,0.5333,101.45,Indonesia,IDN,Riau,855221.0,Asia
Portsmouth,50.8058,-1.0872,United Kingdom,GBR,Portsmouth,855679.0,Europe
Leping,28.9632,117.1203,China,CHN,Jiangxi,852800.0,Asia
Kermānshāh,34.3167,47.0686,Iran,IRN,Kermānshāh,851405.0,Asia
Hailun,47.4585,126.9632,China,CHN,Heilongjiang,850000.0,Asia
Macheng,31.1817,115.0189,China,CHN,Hubei,849090.0,Asia
Ilorin,8.5,4.55,Nigeria,NGA,Kwara,847582.0,Africa
Omaha,41.2627,-96.0522,United States,USA,Nebraska,847819.0,North America
Yuci,37.6804,112.73,China,CHN,Shanxi,840000.0,Asia
Saratov,51.5333,46.0,Russia,RUS,Saratovskaya Oblast’,845300.0,Europe
São Bernardo do Campo,-23.6939,-46.565,Brazil,BRA,São Paulo,844483.0,South America
Erbil,36.1911,44.0094,Iraq,IRQ,Arbīl,846000.0,Asia
Iguaçu,-22.74,-43.47,Brazil,BRA,Rio de Janeiro,844583.0,South America
El Paso,31.8479,-106.4309,United States,USA,Texas,843386.0,North America
Denpasar,-8.6667,115.2167,Indonesia,IDN,Bali,834881.0,Asia
Dehui,44.5323,125.6965,China,CHN,Jilin,839786.0,Asia
Naucalpan de Juárez,19.4753,-99.2378,Mexico,MEX,México,833779.0,North America
Bhubaneshwar,20.2644,85.8281,India,IND,Odisha,837737.0,Asia
Tongchuan,34.9057,108.9422,China,CHN,Shaanxi,835600.0,Asia
Cheongju,36.6372,127.4897,"Korea, South",KOR,Chungbuk,833276.0,Asia
Warri,5.5167,5.75,Nigeria,NGA,Delta,830106.0,Africa
Pointe-Noire,-4.7889,11.8653,Congo (Brazzaville),COG,Pointe-Noire,829134.0,Africa
Rongjiawan,29.1409,113.1087,China,CHN,Hunan,826000.0,Asia
Butterworth,5.3942,100.3664,Malaysia,MYS,Pulau Pinang,821652.0,Asia
Bhayandar,19.3,72.85,India,IND,Mahārāshtra,814655.0,Asia
San Luis Potosí,22.1511,-100.9761,Mexico,MEX,San Luis Potosí,824229.0,North America
Renqiu,38.7094,116.1008,China,CHN,Hebei,822455.0,Asia
João Pessoa,-7.12,-34.88,Brazil,BRA,Paraíba,817511.0,South America
Toluca,19.2925,-99.6569,Mexico,MEX,México,819561.0,North America
Honolulu,21.3294,-157.846,United States,USA,Hawaii,820987.0,North America
Querétaro,20.5875,-100.3928,Mexico,MEX,Querétaro,804663.0,North America
Xindi,29.8182,113.4653,China,CHN,Hubei,819446.0,Asia
Wu’an,36.6941,114.1847,China,CHN,Hebei,819000.0,Asia
Hermosillo,29.0989,-110.9542,Mexico,MEX,Sonora,812229.0,North America
Wutong,30.6326,120.5474,China,CHN,Zhejiang,815848.0,Asia
Taguig City,14.5167,121.05,Philippines,PHL,Taguig,804915.0,Asia
Saltillo,25.4333,-101.0,Mexico,MEX,Coahuila de Zaragoza,807537.0,North America
Gaoyou,32.7847,119.4432,China,CHN,Jiangsu,811800.0,Asia
Hejian,38.4451,116.0897,China,CHN,Hebei,810306.0,Asia
Yiyang,26.4103,112.3913,China,CHN,Hunan,810447.0,Asia
Puxi,35.2125,114.735,China,CHN,Henan,809535.0,Asia
Zijinglu,34.7513,112.9854,China,CHN,Henan,807857.0,Asia
Trabzon,41.005,39.7225,Turkey,TUR,Trabzon,807903.0,Europe
Xiashi,30.5333,120.6833,China,CHN,Zhejiang,806966.0,Asia
Valencia,39.47,-0.3764,Spain,ESP,Valencia,800215.0,Europe
Dongyang,29.2785,120.2282,China,CHN,Zhejiang,804398.0,Asia
McAllen,26.2273,-98.2471,United States,USA,Texas,804114.0,North America
Abaeté,-19.1583,-45.4522,Brazil,BRA,Minas Gerais,800000.0,South America
Palermo,2.8883,-75.4339,Colombia,COL,Huila,800000.0,South America
Johor Bahru,1.4556,103.7611,Malaysia,MYS,Johor,797882.0,Asia
Qingping,34.538,113.3796,China,CHN,Henan,797200.0,Asia
Morelia,19.7683,-101.1894,Mexico,MEX,Michoacán de Ocampo,784776.0,North America
Niigata,37.9161,139.0364,Japan,JPN,Niigata,790646.0,Asia
Pasig City,14.575,121.0833,Philippines,PHL,Pasig,755300.0,Asia
Morādābād,28.8418,78.7568,India,IND,Uttar Pradesh,787000.0,Asia
Hamamatsu,34.7167,137.7333,Japan,JPN,Shizuoka,788211.0,Asia
Culiacán,24.8069,-107.3939,Mexico,MEX,Sinaloa,785800.0,North America
Xiangxiang,27.7389,112.5223,China,CHN,Hunan,787216.0,Asia
Malang,-7.98,112.62,Indonesia,IDN,Jawa Timur,780000.0,Asia
Xingyi,25.091,104.9011,China,CHN,Guizhou,783120.0,Asia
Chaohucun,31.6783,117.7353,China,CHN,Anhui,782000.0,Asia
Fuyang,30.0533,119.9519,China,CHN,Zhejiang,771000.0,Asia
Antipolo,14.5842,121.1763,Philippines,PHL,Rizal,776386.0,Asia
Lubango,-14.9167,13.5,Angola,AGO,Huíla,776249.0,Africa
Nottingham,52.95,-1.15,United Kingdom,GBR,Nottingham,768638.0,Europe
Cencheng,22.9297,111.0186,China,CHN,Guangxi,772113.0,Asia
Kraków,50.0614,19.9372,Poland,POL,Małopolskie,766739.0,Europe
Erzurum,39.9097,41.2756,Turkey,TUR,Erzurum,767848.0,Europe
Hempstead,40.6629,-73.6089,United States,USA,New York,767417.0,North America
Al ‘Ayn,24.2075,55.7447,United Arab Emirates,ARE,Abū Z̧aby,766936.0,Asia
Songzi,30.1772,111.7732,China,CHN,Hubei,765911.0,Asia
Laixi,36.8667,120.5333,China,CHN,Shandong,762900.0,Asia
Bahawalpur,29.3956,71.6722,Pakistan,PAK,Punjab,762111.0,Asia
Zhongba,31.7761,104.7406,China,CHN,Sichuan,762140.0,Asia
Qingnian,36.8494,115.7061,China,CHN,Shandong,760781.0,Asia
Albuquerque,35.1053,-106.6464,United States,USA,New Mexico,761195.0,North America
Kaduna,10.5231,7.4403,Nigeria,NGA,Kaduna,760084.0,Africa
Tlalnepantla,19.5367,-99.1947,Mexico,MEX,México,750224.0,North America
Xinhualu,34.3962,113.7249,China,CHN,Henan,758079.0,Asia
Guangshui,31.6189,113.8229,China,CHN,Hubei,755910.0,Asia
Frankfurt,50.1136,8.6797,Germany,DEU,Hesse,753056.0,Europe
Samarinda,-0.5022,117.1536,Indonesia,IDN,Kalimantan Timur,753370.0,Asia
Changhua,24.0667,120.5333,Taiwan,TWN,Changhua,750000.0,Asia
Pietermaritzburg,-29.5833,30.4167,South Africa,ZAF,KwaZulu-Natal,750845.0,Africa
Hŭngnam,39.8231,127.6232,"Korea, North",PRK,Hamnam,751322.0,Asia
Kolhāpur,16.7,74.2333,India,IND,Mahārāshtra,750000.0,Asia
Ciudad Guayana,8.3596,-62.6517,Venezuela,VEN,Bolívar,751331.0,South America
Cúcuta,7.9075,-72.5047,Colombia,COL,Norte de Santander,750000.0,South America
Licheng,31.4174,119.4786,China,CHN,Jiangsu,749522.0,Asia
Thiruvananthapuram,8.5,76.8997,India,IND,Kerala,743691.0,Asia
Tyumen,57.15,65.5333,Russia,RUS,Tyumenskaya Oblast’,744554.0,Europe
Cancún,21.1606,-86.8475,Mexico,MEX,Quintana Roo,743626.0,North America
Zaporizhzhia,47.8378,35.1383,Ukraine,UKR,Zaporiz’ka Oblast’,741717.0,Europe
Tlajomulco de Zúñiga,20.4736,-103.4431,Mexico,MEX,Jalisco,727750.0,North America
Chengguan,35.4599,113.7975,China,CHN,Henan,740435.0,Asia
Kumamoto,32.8031,130.7078,Japan,JPN,Kumamoto,738567.0,Asia
Nehe,48.48,124.8738,China,CHN,Heilongjiang,740000.0,Asia
Sokoto,13.0622,5.2339,Nigeria,NGA,Sokoto,732178.0,Africa
Birmingham,33.5277,-86.7987,United States,USA,Alabama,739573.0,North America
Zunhua,40.1881,117.9593,China,CHN,Hebei,737011.0,Asia
Orūmīyeh,37.5486,45.0675,Iran,IRN,Āz̄arbāyjān-e Gharbī,736224.0,Asia
Oyo,7.8333,3.9333,Nigeria,NGA,Oyo,736072.0,Africa
Wugang,26.7345,110.6293,China,CHN,Hunan,734870.0,Asia
Shuangqiao,35.0833,112.5833,China,CHN,Henan,733000.0,Asia
Rennes,48.1147,-1.6794,France,FRA,Bretagne,727357.0,Europe
Sizhan,39.0099,106.3694,China,CHN,Ningxia,730400.0,Asia
Comodoro Rivadavia,-45.8667,-67.5,Argentina,ARG,Chubut,730266.0,South America
Langzhong,31.5833,105.972,China,CHN,Sichuan,728935.0,Asia
Bristol,51.45,-2.5833,United Kingdom,GBR,"Bristol, City of",724000.0,Europe
Qian’an,40.0059,118.6973,China,CHN,Hebei,728160.0,Asia
Lviv,49.8419,24.0315,Ukraine,UKR,L’vivs’ka Oblast’,724314.0,Europe
Zouping,36.8625,117.7424,China,CHN,Shandong,726722.0,Asia
Bremen,53.1153,8.7975,Germany,DEU,Bremen,724909.0,Europe
Reynosa,26.0922,-98.2778,Mexico,MEX,Tamaulipas,725793.0,North America
An Najaf,32.029,44.3396,Iraq,IRQ,An Najaf,724700.0,Asia
Sagamihara,35.5667,139.3667,Japan,JPN,Kanagawa,722973.0,Asia
Guli,28.9008,120.0284,China,CHN,Zhejiang,723490.0,Asia
Sarasota,27.3386,-82.5431,United States,USA,Florida,722243.0,North America
Mississauga,43.6,-79.65,Canada,CAN,Ontario,721599.0,North America
Lingbao Chengguanzhen,34.5221,110.8786,China,CHN,Henan,721049.0,Asia
Okayama,34.65,133.9167,Japan,JPN,Okayama,720043.0,Asia
Anlu,31.2575,113.6783,China,CHN,Hubei,720000.0,Asia
Wusong,30.9333,117.7667,China,CHN,Anhui,720000.0,Asia
Dayton,39.7797,-84.1998,United States,USA,Ohio,718353.0,North America
Changsha,22.3762,112.6877,China,CHN,Guangdong,717700.0,Asia
Enugu,6.4403,7.4942,Nigeria,NGA,Enugu,715774.0,Africa
George Town,5.4145,100.3292,Malaysia,MYS,Pulau Pinang,708127.0,Asia
Jaboatão,-8.1803,-35.0014,Brazil,BRA,Pernambuco,702621.0,South America
Santo André,-23.6572,-46.5333,Brazil,BRA,São Paulo,710210.0,South America
Xichang,27.8983,102.2706,China,CHN,Sichuan,712434.0,Asia
Soledad,10.92,-74.77,Colombia,COL,Atlántico,698852.0,South America
Chengxiang,31.4515,121.1043,China,CHN,Jiangsu,709500.0,Asia
Tolyatti,53.5167,49.4167,Russia,RUS,Samarskaya Oblast’,707408.0,Europe
Sahāranpur,29.964,77.546,India,IND,Uttar Pradesh,705478.0,Asia
Warangal,17.9756,79.6011,India,IND,Telangana,704570.0,Asia
Edogawa,35.6924,139.8757,Japan,JPN,Tōkyō,690457.0,Asia
Osasco,-23.5328,-46.7919,Brazil,BRA,São Paulo,694844.0,South America
Dashiqiao,40.6328,122.5021,China,CHN,Liaoning,704891.0,Asia
Latakia,35.5236,35.7917,Syria,SYR,Al Lādhiqīyah,700000.0,Asia
Rochester,43.168,-77.6162,United States,USA,New York,703952.0,North America
Fresno,36.7831,-119.7941,United States,USA,California,703498.0,North America
Banjarmasin,-3.3333,114.5833,Indonesia,IDN,Kalimantan Selatan,692793.0,Asia
Salem,11.65,78.1667,India,IND,Tamil Nādu,693236.0,Asia
Uberlândia,-18.9189,-48.2769,Brazil,BRA,Minas Gerais,699097.0,South America
Shishi,24.7355,118.6434,China,CHN,Fujian,693000.0,Asia
Grenoble,45.1715,5.7224,France,FRA,Auvergne-Rhône-Alpes,687985.0,Europe
Guadalupe,25.6775,-100.2597,Mexico,MEX,Nuevo León,691931.0,North America
Adachi,35.7833,139.8,Japan,JPN,Tōkyō,682326.0,Asia
Qianxi,27.0284,106.0327,China,CHN,Guizhou,695947.0,Asia
Aracaju,-10.9111,-37.0717,Brazil,BRA,Sergipe,685356.0,South America
Bauchi,10.3158,9.8442,Nigeria,NGA,Bauchi,693700.0,Africa
Hamilton,43.2567,-79.8692,Canada,CAN,Ontario,693645.0,North America
Łódź,51.7769,19.4547,Poland,POL,Łódzkie,690422.0,Europe
Miluo Chengguanzhen,28.8049,113.0745,China,CHN,Hunan,692080.0,Asia
Gaizhou,40.4019,122.3499,China,CHN,Liaoning,691595.0,Asia
Mālegaon,20.55,74.55,India,IND,Mahārāshtra,690844.0,Asia
Karbalā’,32.6167,44.0333,Iraq,IRQ,Karbalā’,690100.0,Asia
Leling,37.7333,117.2167,China,CHN,Shandong,689867.0,Asia
São José dos Campos,-23.1789,-45.8869,Brazil,BRA,São Paulo,688597.0,South America
Jianshe,34.2189,113.7693,China,CHN,Henan,687130.0,Asia
Acapulco de Juárez,16.8636,-99.8825,Mexico,MEX,Guerrero,687608.0,North America
Sheffield,53.3833,-1.4667,United Kingdom,GBR,Sheffield,685368.0,Europe
Shizuoka,34.9756,138.3825,Japan,JPN,Shizuoka,685589.0,Asia
Jingcheng,32.0058,120.2547,China,CHN,Jiangsu,684360.0,Asia
City of Parañaque,14.4667,121.0167,Philippines,PHL,Parañaque,665822.0,Asia
Kochi,9.9667,76.2833,India,IND,Kerala,677381.0,Asia
Allentown,40.5961,-75.4756,United States,USA,Pennsylvania,683794.0,North America
Tasikmalaya,-7.3333,108.2,Indonesia,IDN,Jawa Barat,678027.0,Asia
Macau,22.203,113.545,Macau,MAC,,568700.0,Asia
Torreón,25.5394,-103.4486,Mexico,MEX,Coahuila de Zaragoza,679288.0,North America
Xinmin,41.9952,122.8224,China,CHN,Liaoning,680000.0,Asia
Shanhu,29.5908,120.8176,China,CHN,Zhejiang,679762.0,Asia
Zhongshu,27.8116,106.4133,China,CHN,Guizhou,679624.0,Asia
Xigazê,29.2649,88.8799,China,CHN,Tibet,679771.0,Asia
Gold Coast,-28.0167,153.4,Australia,AUS,Queensland,679127.0,Oceania
Cagayan de Oro,8.4833,124.65,Philippines,PHL,Cagayan de Oro,675950.0,Asia
Gorakhpur,26.7611,83.3667,India,IND,Uttar Pradesh,673446.0,Asia
Pinghu,30.7005,121.0104,China,CHN,Zhejiang,671834.0,Asia
Palermo,38.1157,13.3613,Italy,ITA,Sicilia,668405.0,Europe
Guankou,30.9933,103.624,China,CHN,Sichuan,671200.0,Asia
Tulsa,36.1284,-95.9042,United States,USA,Oklahoma,671033.0,North America
Yatou,37.1653,122.4867,China,CHN,Shandong,670251.0,Asia
Songyang,34.4161,113.0424,China,CHN,Henan,668592.0,Asia
Cape Coral,26.6446,-81.9956,United States,USA,Florida,668382.0,North America
Ch’ŏngjin,41.8,129.7831,"Korea, North",PRK,Hambuk,667929.0,Asia
Puyang Chengguanzhen,35.7004,114.98,China,CHN,Henan,666322.0,Asia
Qionghu,28.8417,112.3595,China,CHN,Hunan,667104.0,Asia
Ribeirão Prêto,-21.1783,-47.8067,Brazil,BRA,São Paulo,666323.0,South America
Dasmariñas,14.3294,120.9367,Philippines,PHL,Cavite,659019.0,Asia
Wenchang,31.054,116.9507,China,CHN,Anhui,664455.0,Asia
Shulan,44.4167,126.95,China,CHN,Jilin,663403.0,Asia
Catia La Mar,10.6,-67.0333,Venezuela,VEN,Vargas,661897.0,South America
Sargodha,32.0836,72.6711,Pakistan,PAK,Punjab,659862.0,Asia
Bouaké,7.6833,-5.0331,Côte D’Ivoire,CIV,Vallée du Bandama,659233.0,Africa
Sialkot City,32.5,74.5333,Pakistan,PAK,Punjab,655852.0,Asia
As Sulaymānīyah,35.55,45.4333,Iraq,IRQ,As Sulaymānīyah,656100.0,Asia
Hwasu-dong,37.2,126.7667,"Korea, South",KOR,Gyeonggi,655350.0,Asia
Jeonju,35.8219,127.1489,"Korea, South",KOR,Jeonbuk,653055.0,Asia
Durango,24.0167,-104.6667,Mexico,MEX,Durango,654876.0,North America
Shimoga,13.9304,75.56,India,IND,Karnātaka,654055.0,Asia
Ansan,37.3236,126.8219,"Korea, South",KOR,Gyeonggi,652800.0,Asia
Bulawayo,-20.1667,28.5667,Zimbabwe,ZWE,Bulawayo,653337.0,Africa
Xiping,25.6005,103.8166,China,CHN,Yunnan,652604.0,Asia
Sanhe,39.9808,117.0701,China,CHN,Hebei,652042.0,Asia
Guntūr,16.3,80.45,India,IND,Andhra Pradesh,647508.0,Asia
Dali,25.7003,100.1564,China,CHN,Yunnan,652045.0,Asia
Concord,37.9722,-122.0016,United States,USA,California,652308.0,North America
Contagem,-19.9319,-44.0539,Brazil,BRA,Minas Gerais,648766.0,South America
Tiruppūr,11.1075,77.3398,India,IND,Tamil Nādu,650000.0,Asia
Ch’ŏnan,36.8064,127.1522,"Korea, South",KOR,Chungnam,651661.0,Asia
Zaragoza,41.6483,-0.883,Spain,ESP,Aragon,649404.0,Europe
Düsseldorf,51.2311,6.7724,Germany,DEU,North Rhine-Westphalia,645923.0,Europe
Izhevsk,56.85,53.2167,Russia,RUS,Udmurtiya,646277.0,Europe
Guixi,28.2861,117.2083,China,CHN,Jiangxi,647240.0,Asia
Sorocaba,-23.5019,-47.4578,Brazil,BRA,São Paulo,644919.0,South America
Villahermosa,17.9892,-92.9281,Mexico,MEX,Tabasco,640359.0,North America
Petaling Jaya,3.1073,101.6067,Malaysia,MYS,Selangor,638516.0,Asia
Tengyue,25.0208,98.4972,China,CHN,Yunnan,644765.0,Asia
Wuxue,29.8518,115.5539,China,CHN,Hubei,644247.0,Asia
Utrecht,52.0908,5.1222,Netherlands,NLD,Utrecht,640000.0,Europe
Kikwit,-5.0333,18.8167,Congo (Kinshasa),COD,Kwilu,637736.0,Africa
Colorado Springs,38.8674,-104.7606,United States,USA,Colorado,642413.0,North America
Valenzuela,14.7,120.9833,Philippines,PHL,Valenzuela,620422.0,Asia
Qufu,35.6,116.9833,China,CHN,Shandong,640498.0,Asia
Gaobeidian,39.3257,115.8678,China,CHN,Hebei,640280.0,Asia
Ruiming,25.8833,116.0333,China,CHN,Jiangxi,640600.0,Asia
Wrocław,51.11,17.0325,Poland,POL,Dolnośląskie,638586.0,Europe
Rasht,37.2833,49.6,Iran,IRN,Gīlān,639951.0,Asia
Nantes,47.2181,-1.5528,France,FRA,Pays de la Loire,633690.0,Europe
Stuttgart,48.7761,9.1775,Germany,DEU,Baden-Württemberg,634830.0,Europe
Al Hufūf,25.3608,49.5997,Saudi Arabia,SAU,Ash Sharqīyah,637389.0,Asia
Xinshi,31.0236,113.1079,China,CHN,Hubei,636776.0,Asia
Cochabamba,-17.3935,-66.157,Bolivia,BOL,Cochabamba,632013.0,South America
Barnaul,53.3567,83.7872,Russia,RUS,Altayskiy Kray,633301.0,Europe
Tripoli,34.4333,35.8333,Lebanon,LBN,Liban-Nord,530000.0,Asia
Jin’e,29.3395,105.2868,China,CHN,Sichuan,633210.0,Asia
Rotterdam,51.9225,4.4792,Netherlands,NLD,Zuid-Holland,631155.0,Europe
Benghazi,32.1167,20.0667,Libya,LBY,Banghāzī,631555.0,Africa
Kryvyi Rih,47.9086,33.3433,Ukraine,UKR,Dnipropetrovs’ka Oblast’,629695.0,Europe
Yanggok,37.6367,127.2142,"Korea, South",KOR,Gyeonggi,629061.0,Asia
Changping,40.2248,116.1944,China,CHN,Beijing,614821.0,Asia
Raurkela,22.2492,84.8828,India,IND,Odisha,625831.0,Asia
Ḩalwān,29.8419,31.3342,Egypt,EGY,Al Qāhirah,619293.0,Africa
Charleston,32.8153,-79.9628,United States,USA,South Carolina,628377.0,North America
Chimalhuacán,19.4167,-98.9,Mexico,MEX,México,614453.0,North America
Xinxing,39.8734,124.1453,China,CHN,Liaoning,627475.0,Asia
Suohe,34.7879,113.392,China,CHN,Henan,626700.0,Asia
Mangalore,12.8703,74.8806,India,IND,Karnātaka,623841.0,Asia
Zhuangyuan,37.3,120.8333,China,CHN,Shandong,626683.0,Asia
Ulyanovsk,54.3167,48.3667,Russia,RUS,Ul’yanovskaya Oblast’,624518.0,Europe
Irkutsk,52.2833,104.3,Russia,RUS,Irkutskaya Oblast’,623736.0,Europe
Nānded,19.15,77.3333,India,IND,Mahārāshtra,623708.0,Asia
Bacoor,14.4624,120.9645,Philippines,PHL,Cavite,600609.0,Asia
Pontianak,-0.0206,109.3414,Indonesia,IDN,Kalimantan Barat,618388.0,Asia
Villa Nueva,14.5314,-90.5964,Guatemala,GTM,Guatemala,618397.0,North America
Bazhou,39.1235,116.386,China,CHN,Hebei,622975.0,Asia
Springfield,42.1155,-72.5395,United States,USA,Massachusetts,623401.0,North America
Turpan,42.95,89.1822,China,CHN,Xinjiang,622903.0,Asia
Xingtai,37.0659,114.4753,China,CHN,Hebei,611739.0,Asia
Meihekou,42.5279,125.678,China,CHN,Jilin,618251.0,Asia
Cuiabá,-15.5958,-56.0969,Brazil,BRA,Mato Grosso,618124.0,South America
Jurong,31.9579,119.1595,China,CHN,Jiangsu,617706.0,Asia
Feira de Santana,-12.2669,-38.9669,Brazil,BRA,Bahia,617528.0,South America
Khabarovsk,48.4833,135.0667,Russia,RUS,Khabarovskiy Kray,616242.0,Europe
Zhugang,28.1277,121.2288,China,CHN,Zhejiang,616346.0,Asia
Xinji,37.9423,115.2118,China,CHN,Hebei,615919.0,Asia
Hamhŭng,39.9656,127.4886,"Korea, North",PRK,Hamnam,614198.0,Asia
Serang,-6.12,106.1503,Indonesia,IDN,Banten,613356.0,Asia
Sanya,18.2536,109.5019,China,CHN,Hainan,614647.0,Asia
Buraydah,26.3333,43.9667,Saudi Arabia,SAU,Al Qaşīm,614093.0,Asia
Ta‘izz,13.5789,44.0219,Yemen,YEM,Ta‘izz,596672.0,Asia
Montpellier,43.6119,3.8772,France,FRA,Occitanie,607896.0,Europe
San Miguel de Tucumán,-26.8167,-65.2167,Argentina,ARG,Tucumán,605767.0,South America
Yaroslavl,57.6167,39.85,Russia,RUS,Yaroslavskaya Oblast’,608079.0,Europe
Zhangshu,28.0667,115.5375,China,CHN,Jiangxi,610424.0,Asia
Grand Rapids,42.962,-85.6562,United States,USA,Michigan,609314.0,North America
Vladivostok,43.1167,131.9,Russia,RUS,Primorskiy Kray,606589.0,Europe
Kuantan,3.8167,103.3333,Malaysia,MYS,Pahang,607778.0,Asia
Gothenburg,57.6717,11.981,Sweden,SWE,Västra Götaland,604829.0,Europe
Cuttack,20.45,85.8667,India,IND,Odisha,606007.0,Asia
Jambi,-1.59,103.61,Indonesia,IDN,Jambi,602187.0,Asia
Zhuozhou,39.4887,115.9918,China,CHN,Hebei,603535.0,Asia
Tianchang,32.6853,119.0041,China,CHN,Anhui,602840.0,Asia
Las Piñas City,14.45,120.9833,Philippines,PHL,Las Piñas,588894.0,Asia
Cimahi,-6.8833,107.5333,Indonesia,IDN,Jawa Barat,586580.0,Asia
Tuxtla,16.7528,-93.1167,Mexico,MEX,Chiapas,598710.0,North America
Balikpapan,-1.1489,116.9031,Indonesia,IDN,Kalimantan Timur,598043.0,Asia
Qamdo,31.1375,97.1777,China,CHN,Tibet,598862.0,Asia
Joinvile,-26.3039,-48.8458,Brazil,BRA,Santa Catarina,597658.0,South America
Durban,-29.8583,31.025,South Africa,ZAF,KwaZulu-Natal,595061.0,Africa
General Santos,6.1167,125.1667,Philippines,PHL,General Santos,594446.0,Asia
Chānda,19.95,79.3,India,IND,Mahārāshtra,595118.0,Asia
Kagoshima,31.58,130.5281,Japan,JPN,Kagoshima,594258.0,Asia
Leipzig,51.3333,12.3833,Germany,DEU,Saxony,593197.0,Europe
Al Ḩillah,23.4895,46.7564,Saudi Arabia,SAU,Ar Riyāḑ,594605.0,Asia
Makhachkala,42.9833,47.4833,Russia,RUS,Dagestan,592976.0,Europe
Sihui,23.3448,112.6956,China,CHN,Guangdong,593400.0,Asia
Mar del Plata,-38.0,-57.55,Argentina,ARG,Buenos Aires,593337.0,South America
Brampton,43.6833,-79.7667,Canada,CAN,Ontario,593638.0,North America
Luocheng,30.9793,104.28,China,CHN,Sichuan,591115.0,Asia
Pereira,4.8143,-75.6946,Colombia,COL,Risaralda,590554.0,South America
Mission Viejo,33.6095,-117.655,United States,USA,California,590249.0,North America
Dortmund,51.5139,7.4653,Germany,DEU,North Rhine-Westphalia,587010.0,Europe
Chuxiong,25.0461,101.5436,China,CHN,Yunnan,588620.0,Asia
Makati City,14.55,121.0333,Philippines,PHL,Makati,582602.0,Asia
Albany,42.6664,-73.7987,United States,USA,New York,586383.0,North America
Shah Alam,3.0833,101.5333,Malaysia,MYS,Selangor,584340.0,Asia
Knoxville,35.9692,-83.9496,United States,USA,Tennessee,586048.0,North America
Essen,51.4508,7.0131,Germany,DEU,North Rhine-Westphalia,583109.0,Europe
Shangzhi,45.2116,127.962,China,CHN,Heilongjiang,585386.0,Asia
Botou,38.074,116.57,China,CHN,Hebei,584308.0,Asia
Bucaramanga,7.1186,-73.1161,Colombia,COL,Santander,581130.0,South America
Anyang,37.3925,126.9269,"Korea, South",KOR,Gyeonggi,573296.0,Asia
Genoa,44.4072,8.934,Italy,ITA,Liguria,580097.0,Europe
Kuiju,36.8528,119.3904,China,CHN,Shandong,581470.0,Asia
Tlaquepaque,20.6167,-103.3167,Mexico,MEX,Jalisco,575942.0,North America
Puente Alto,-33.6167,-70.5833,Chile,CHL,Región Metropolitana,573935.0,South America
Dehra Dūn,30.318,78.029,India,IND,Uttarakhand,578420.0,Asia
Aţ Ţā’if,21.2667,40.4167,Saudi Arabia,SAU,Makkah al Mukarramah,579970.0,Asia
San Jose del Monte,14.8139,121.0453,Philippines,PHL,Bulacan,574089.0,Asia
Bakersfield,35.3529,-119.0359,United States,USA,California,579295.0,North America
Wancheng,18.8,110.4,China,CHN,Hainan,578600.0,Asia
Hachiōji,35.6667,139.3167,Japan,JPN,Tōkyō,575721.0,Asia
Ogden,41.2278,-111.9682,United States,USA,Utah,578523.0,North America
Xiulin,29.7211,112.4037,China,CHN,Hubei,577022.0,Asia
Fu’an,27.1,119.6333,China,CHN,Fujian,577000.0,Asia
Tomsk,56.4886,84.9522,Russia,RUS,Tomskaya Oblast’,572740.0,Europe
Kermān,30.2833,57.0667,Iran,IRN,Kermān,573449.0,Asia
Kingston upon Hull,53.7444,-0.3325,United Kingdom,GBR,"Kingston upon Hull, City of",573300.0,Europe
Al Maḩallah al Kubrá,30.9667,31.1667,Egypt,EGY,Al Gharbīyah,543271.0,Africa
Kumul,42.8322,93.5155,China,CHN,Xinjiang,572400.0,Asia
Luofeng,37.359,120.396,China,CHN,Shandong,570898.0,Asia
Lingyuan,41.2407,119.3957,China,CHN,Liaoning,570660.0,Asia
Baton Rouge,30.4418,-91.131,United States,USA,Louisiana,570308.0,North America
Wencheng,19.6167,110.75,China,CHN,Hainan,568900.0,Asia
Ciudad Bolívar,8.1167,-63.55,Venezuela,VEN,Bolívar,567953.0,South America
Durgāpur,23.55,87.32,India,IND,West Bengal,566517.0,Asia
Orenburg,51.7667,55.1,Russia,RUS,Orenburgskaya Oblast’,564443.0,Europe
Shenzhou,38.0005,115.5541,China,CHN,Hebei,566087.0,Asia
Āsansol,23.6833,86.9667,India,IND,West Bengal,563917.0,Asia
Bacolod,10.6765,122.9509,Philippines,PHL,Bacolod,561875.0,Asia
Akron,41.0798,-81.5219,United States,USA,Ohio,565208.0,North America
New Haven,41.3112,-72.9246,United States,USA,Connecticut,564830.0,North America
Zhenzhou,32.2739,119.1619,China,CHN,Jiangsu,564021.0,Asia
Surakarta,-7.5667,110.8167,Indonesia,IDN,Jawa Tengah,552118.0,Asia
Jieshou,33.2605,115.3618,China,CHN,Anhui,561956.0,Asia
Lanxi,29.2167,119.4722,China,CHN,Zhejiang,560514.0,Asia
Zāhedān,29.4833,60.8667,Iran,IRN,Sīstān va Balūchestān,560725.0,Asia
Dangyang,30.8258,111.791,China,CHN,Hubei,560000.0,Asia
Columbia,34.0376,-80.9037,United States,USA,South Carolina,560041.0,North America
Kemerovo,55.3333,86.0667,Russia,RUS,Kemerovskaya Oblast’,556920.0,Europe
Dresden,51.05,13.74,Germany,DEU,Saxony,556549.0,Europe
Veracruz,19.1903,-96.1533,Mexico,MEX,Veracruz,552156.0,North America
Bhāvnagar,21.765,72.1369,India,IND,Gujarāt,554978.0,Asia
Luanzhou,39.7396,118.6978,China,CHN,Hebei,554315.0,Asia
Novokuznetsk,53.75,87.1167,Russia,RUS,Kemerovskaya Oblast’,552105.0,Europe
Nellore,14.4333,79.9667,India,IND,Andhra Pradesh,547621.0,Asia
Chiclayo,-6.763,-79.8366,Peru,PER,Lambayeque,552508.0,South America
Palma,39.5667,2.65,Spain,ESP,Balearic Islands,550000.0,Europe
Al Ḩudaydah,14.8022,42.9511,Yemen,YEM,Al Ḩudaydah,548433.0,Asia
Eslāmshahr,35.5333,51.2,Iran,IRN,Tehrān,548620.0,Asia
Cabinda,-5.5667,12.2,Angola,AGO,Cabinda,550000.0,Africa
Amrāvati,20.9333,77.75,India,IND,Mahārāshtra,549370.0,Asia
Korla,41.7646,86.1527,China,CHN,Xinjiang,549324.0,Asia
Huanghua,38.371,117.3329,China,CHN,Hebei,548507.0,Asia
Londrina,-23.31,-51.1628,Brazil,BRA,Paraná,548249.0,South America
Tabūk,28.3838,36.555,Saudi Arabia,SAU,Tabūk,547957.0,Asia
Xingcheng,40.6189,120.7205,China,CHN,Liaoning,546176.0,Asia
Kaiyuan,42.538,124.0371,China,CHN,Liaoning,545624.0,Asia
Valledupar,10.4603,-73.2597,Colombia,COL,Cesar,544134.0,South America
Fengcheng,40.4543,124.0646,China,CHN,Liaoning,543933.0,Asia
Ajmer,26.468,74.639,India,IND,Rājasthān,542321.0,Asia
Tinnevelly,8.7289,77.7081,India,IND,Tamil Nādu,542200.0,Asia
Fuding,27.2,120.2,China,CHN,Fujian,542000.0,Asia
Maturín,9.7457,-63.1832,Venezuela,VEN,Monagas,542259.0,South America
An Nāşirīyah,31.0439,46.2575,Iraq,IRQ,Dhī Qār,541600.0,Asia
Al Ḩillah,32.4833,44.4333,Iraq,IRQ,Bābil,541034.0,Asia
Ibagué,4.4378,-75.2006,Colombia,COL,Tolima,541101.0,South America
Hannover,52.3744,9.7386,Germany,DEU,Lower Saxony,538068.0,Europe
Ryazan,54.6167,39.7167,Russia,RUS,Ryazanskaya Oblast’,537622.0,Europe
Panshi,42.9392,126.0561,China,CHN,Jilin,539804.0,Asia
Kassala,15.45,36.4,Sudan,SDN,Kassala,536009.0,Africa
Ananindeua,-1.3658,-48.3719,Brazil,BRA,Pará,535547.0,South America
Chang’an,29.4761,113.448,China,CHN,Hunan,537500.0,Asia
Shashi,30.32,112.23,China,CHN,Hubei,520000.0,Asia
Poznań,52.4,16.9167,Poland,POL,Wielkopolskie,533830.0,Europe
Aksu,41.1664,80.25,China,CHN,Xinjiang,535657.0,Asia
Salta,-24.7883,-65.4106,Argentina,ARG,Salta,535303.0,South America
Astrakhan,46.3333,48.0167,Russia,RUS,Astrakhanskaya Oblast’,532504.0,Europe
Mingguang,32.7816,117.9899,China,CHN,Anhui,532732.0,Asia
Naberezhnyye Chelny,55.7,52.3333,Russia,RUS,Tatarstan,529797.0,Europe
Bīkaner,28.0181,73.3169,India,IND,Rājasthān,529007.0,Asia
Agartala,23.8333,91.2667,India,IND,Tripura,522613.0,Asia
Xalapa,19.54,-96.9275,Mexico,MEX,Veracruz,525147.0,North America
Ndola,-12.9683,28.6337,Zambia,ZMB,Copperbelt,528330.0,Africa
Hamadān,34.8065,48.5162,Iran,IRN,Hamadān,528256.0,Asia
Villavicencio,4.1425,-73.6294,Colombia,COL,Meta,527668.0,South America
Ailan Mubage,43.9167,81.3167,China,CHN,Xinjiang,526745.0,Asia
Ensenada,31.8578,-116.6058,Mexico,MEX,Baja California,522768.0,North America
Lyon,45.76,4.84,France,FRA,Auvergne-Rhône-Alpes,516092.0,Europe
Bắc Ninh,21.1861,106.0763,Vietnam,VNM,Bắc Ninh,520000.0,Asia
Ciudad Apodaca,25.7833,-100.1833,Mexico,MEX,Nuevo León,523370.0,North America
Santa Teresa del Tuy,10.2333,-66.65,Venezuela,VEN,Miranda,525321.0,South America
Maipú,-33.5167,-70.7667,Chile,CHL,Región Metropolitana,521627.0,South America
Penza,53.2,45.0,Russia,RUS,Penzenskaya Oblast’,523726.0,Europe
Heroica Matamoros,25.8797,-97.5042,Mexico,MEX,Tamaulipas,520367.0,North America
Port Said,31.25,32.2833,Egypt,EGY,Būr Sa‘īd,524433.0,Africa
Yucheng,36.9329,116.6403,China,CHN,Shandong,522878.0,Asia
Meknès,33.8833,-5.55,Morocco,MAR,Fès-Meknès,520428.0,Africa
Nuremberg,49.4539,11.0775,Germany,DEU,Bavaria,518365.0,Europe
Pohang,36.0322,129.365,"Korea, South",KOR,Gyeongbuk,520305.0,Asia
Anda,46.4078,125.3252,China,CHN,Heilongjiang,520000.0,Asia
Jinghong,22.0057,100.7948,China,CHN,Yunnan,519935.0,Asia
Utsunomiya,36.55,139.8833,Japan,JPN,Tochigi,518197.0,Asia
Liaoyuan,42.8976,125.1381,China,CHN,Jilin,506548.0,Asia
Mesa,33.4017,-111.718,United States,USA,Arizona,518012.0,North America
Surrey,49.19,-122.8489,Canada,CAN,British Columbia,517887.0,North America
Caxias do Sul,-29.1678,-51.1789,Brazil,BRA,Rio Grande do Sul,517451.0,South America
Heshan,22.7697,112.9578,China,CHN,Guangdong,516500.0,Asia
Cuautitlán Izcalli,19.65,-99.25,Mexico,MEX,México,511675.0,North America
Ujjain,23.1828,75.7772,India,IND,Madhya Pradesh,515215.0,Asia
Jiaji,19.2431,110.4642,China,CHN,Hainan,515700.0,Asia
Santa Marta,11.2361,-74.2017,Colombia,COL,Magdalena,515556.0,South America
Beining,41.5933,121.7932,China,CHN,Liaoning,514898.0,Asia
Hải Dương,20.9399,106.3309,Vietnam,VNM,Hải Dương,507469.0,Asia
Carrefour,18.5333,-72.4,Haiti,HTI,Ouest,511345.0,North America
Homyel’,52.4417,30.9833,Belarus,BLR,Homyel’skaya Voblasts’,510300.0,Europe
Leicester,52.6333,-1.1333,United Kingdom,GBR,Leicester,508916.0,Europe
Yanji,42.9044,129.5067,China,CHN,Jilin,513072.0,Asia
Yicheng,31.7117,112.2551,China,CHN,Hubei,512530.0,Asia
Lipetsk,52.6167,39.6,Russia,RUS,Lipetskaya Oblast’,510439.0,Europe
Choloma,15.6333,-88.0,Honduras,HND,Cortés,510456.0,North America
Ulhāsnagar,19.2167,73.15,India,IND,Mahārāshtra,506098.0,Asia
Encheng,22.1879,112.3131,China,CHN,Guangdong,509700.0,Asia
Muntinlupa City,14.3833,121.05,Philippines,PHL,Muntinlupa,504509.0,Asia
Linghai,41.1676,121.3558,China,CHN,Liaoning,508079.0,Asia
Aden,12.8,45.0333,Yemen,YEM,‘Adan,507355.0,Asia
Matsuyama,33.8333,132.7667,Japan,JPN,Ehime,506743.0,Asia
Jhānsi,25.4486,78.5696,India,IND,Uttar Pradesh,507000.0,Asia
Kitwe,-12.8208,28.2119,Zambia,ZMB,Copperbelt,504194.0,Africa
Kashgar,39.45,75.9833,China,CHN,Xinjiang,506640.0,Asia
Aba,5.1167,7.3667,Nigeria,NGA,Abia,500183.0,Africa
Palm Bay,27.955,-80.6627,United States,USA,Florida,507002.0,North America
Pingtung,22.6761,120.4942,Taiwan,TWN,Pingtung,503530.0,Asia
Montería,8.76,-75.8856,Colombia,COL,Córdoba,505334.0,South America
Samarkand,39.6542,66.9597,Uzbekistan,UZB,Samarqand,504423.0,Asia
Davangere,14.4667,75.9167,India,IND,Karnātaka,503564.0,Asia
Jammu,32.7333,74.85,India,IND,Jammu and Kashmīr,502197.0,Asia
Mazatlán,23.22,-106.42,Mexico,MEX,Sinaloa,502547.0,North America
Murcia,37.9861,-1.1303,Spain,ESP,Murcia,502000.0,Europe
Ile-Ife,7.4667,4.5667,Nigeria,NGA,Osun,501952.0,Africa
Kirov,58.6,49.65,Russia,RUS,Kirovskaya Oblast’,501468.0,Europe
Qaraghandy,49.8,73.1167,Kazakhstan,KAZ,Qaraghandy,501129.0,Asia
Belas,-8.9983,13.265,Angola,AGO,Luanda,500000.0,Africa
Mazatán,29.0167,-110.1333,Mexico,MEX,Sonora,500000.0,North America
Duisburg,51.4322,6.7611,Germany,DEU,North Rhine-Westphalia,498590.0,Europe
Mykolaiv,46.9667,32.0,Ukraine,UKR,Mykolayivs’ka Oblast’,498748.0,Europe
Provo,40.2457,-111.6457,United States,USA,Utah,500617.0,North America
Meicheng,30.6412,116.5689,China,CHN,Anhui,500292.0,Asia
Niterói,-22.8833,-43.1036,Brazil,BRA,Rio de Janeiro,496696.0,South America
Matsudo,35.7878,139.9031,Japan,JPN,Chiba,492367.0,Asia
Sukkur,27.6995,68.8673,Pakistan,PAK,Sindh,499900.0,Asia
Rouen,49.4428,1.0886,France,FRA,Normandie,494382.0,Europe
Higashi-ōsaka,34.6794,135.6008,Japan,JPN,Ōsaka,490819.0,Asia
Worcester,42.2705,-71.8079,United States,USA,Massachusetts,498328.0,North America
Hongjiang,27.1167,109.95,China,CHN,Hunan,498100.0,Asia
Chimbote,-9.0745,-78.5936,Peru,PER,Ancash,497875.0,South America
Ixtapaluca,19.3186,-98.8822,Mexico,MEX,México,495563.0,North America
Dengtacun,41.42,123.33,China,CHN,Liaoning,496122.0,Asia
Zhijiang,30.4271,111.7506,China,CHN,Hubei,495995.0,Asia
Chengjiao,35.4043,114.0593,China,CHN,Henan,495744.0,Asia
Beipiao,41.802,120.7621,China,CHN,Liaoning,496164.0,Asia
Murrieta,33.572,-117.1909,United States,USA,California,496046.0,North America
Kota Bharu,6.1333,102.25,Malaysia,MYS,Kelantan,491237.0,Asia
Ciudad López Mateos,19.55,-99.2833,Mexico,MEX,México,489937.0,North America
Vinh,18.6733,105.6922,Vietnam,VNM,Nghệ An,490000.0,Asia
Tultitlán de Mariano Escobedo,19.645,-99.1694,Mexico,MEX,México,486998.0,North America
Duyun,26.2672,107.5143,China,CHN,Guizhou,493574.0,Asia
Kandahār,31.6078,65.7053,Afghanistan,AFG,Kandahār,491500.0,Asia
Nishinomiya-hama,34.7333,135.3333,Japan,JPN,Hyōgo,487010.0,Asia
Larkana,27.56,68.2264,Pakistan,PAK,Sindh,490508.0,Asia
Cheboksary,56.1333,47.25,Russia,RUS,Chuvashiya,489498.0,Europe
Yuanping,38.7299,112.7134,China,CHN,Shanxi,491213.0,Asia
Port Sudan,19.6158,37.2164,Sudan,SDN,Red Sea,489275.0,Africa
Edinburgh,55.953,-3.189,United Kingdom,GBR,"Edinburgh, City of",488050.0,Europe
Belgaum,15.8667,74.5,India,IND,Karnātaka,488157.0,Asia
Tula,54.2,37.6167,Russia,RUS,Tul’skaya Oblast’,485221.0,Europe
Suez,29.9667,32.5333,Egypt,EGY,As Suways,485342.0,Africa
Shahe,36.8622,114.502,China,CHN,Hebei,486329.0,Asia
Yazd,31.8972,54.3678,Iran,IRN,Yazd,486152.0,Asia
Serra,-20.1289,-40.3078,Brazil,BRA,Espírito Santo,485376.0,South America
Nazrēt,8.55,39.27,Ethiopia,ETH,Oromīya,476892.0,Africa
Gaoping,35.7911,112.9259,China,CHN,Shanxi,484862.0,Asia
Greenville,34.8353,-82.3647,United States,USA,South Carolina,484465.0,North America
Arāk,34.08,49.7,Iran,IRN,Markazī,484212.0,Asia
San Nicolás de los Garza,25.75,-100.2833,Mexico,MEX,Nuevo León,476761.0,North America
Gulbarga,17.3333,76.8333,India,IND,Karnātaka,483615.0,Asia
Juiz de Fora,-21.7642,-43.3503,Brazil,BRA,Minas Gerais,470193.0,South America
Dunhua,43.3667,128.2333,China,CHN,Jilin,483811.0,Asia
Brookhaven,40.8321,-72.9518,United States,USA,New York,483546.0,North America
Az Zarqā’,32.0833,36.1,Jordan,JOR,Az Zarqā’,481300.0,Asia
Americana,-22.7392,-47.3314,Brazil,BRA,São Paulo,479472.0,South America
Ardabīl,38.25,48.3,Iran,IRN,Ardabīl,482632.0,Asia
Sylhet,24.9,91.8667,Bangladesh,BGD,Sylhet,479837.0,Asia
Wichita,37.6896,-97.3442,United States,USA,Kansas,482249.0,North America
Toledo,41.6639,-83.5822,United States,USA,Ohio,482111.0,North America
Kaihua,23.3715,104.2437,China,CHN,Yunnan,481505.0,Asia
Caerdydd,51.4833,-3.1833,United Kingdom,GBR,Cardiff,479000.0,Europe
Jāmnagar,22.47,70.07,India,IND,Gujarāt,479920.0,Asia
Dhūlia,20.9,74.7833,India,IND,Mahārāshtra,479073.0,Asia
Nampula,-15.1167,39.2667,Mozambique,MOZ,Nampula,477900.0,Africa
Gaya,24.75,85.0167,India,IND,Bihār,474093.0,Asia
Florianópolis,-27.5933,-48.553,Brazil,BRA,Santa Catarina,477798.0,South America
Chiniot,31.7167,72.9833,Pakistan,PAK,Punjab,477781.0,Asia
Jiannan,31.3446,104.1994,China,CHN,Sichuan,477868.0,Asia
Ōita,33.2333,131.6067,Japan,JPN,Ōita,477186.0,Asia
Wuhai,39.6708,106.8114,China,CHN,Inner Mongolia,477000.0,Asia
Kaliningrad,54.7167,20.5,Russia,RUS,Kaliningradskaya Oblast’,475056.0,Europe
Nangong,37.3606,115.3803,China,CHN,Hebei,476096.0,Asia
Staten Island,40.5834,-74.1496,United States,USA,New York,476143.0,North America
San Juan,-31.5375,-68.5364,Argentina,ARG,San Juan,471389.0,South America
Vila Velha,-20.3364,-40.2936,Brazil,BRA,Espírito Santo,472762.0,South America
Macapá,0.033,-51.0653,Brazil,BRA,Amapá,474706.0,South America
Shekhupura,31.7083,74.0,Pakistan,PAK,Punjab,473129.0,Asia
Des Moines,41.5725,-93.6105,United States,USA,Iowa,473957.0,North America
Piura,-5.2008,-80.6253,Peru,PER,Piura,473025.0,South America
Jiaojiangcun,28.6804,121.45,China,CHN,Zhejiang,471500.0,Asia
Laohekou,32.3849,111.6695,China,CHN,Hubei,471482.0,Asia
Beian,48.2395,126.5037,China,CHN,Heilongjiang,470000.0,Asia
Fujin,47.2489,132.0341,China,CHN,Heilongjiang,470000.0,Asia
Celaya,20.5222,-100.8122,Mexico,MEX,Guanajuato,468469.0,North America
Xiaoyi,37.1449,111.7718,China,CHN,Shanxi,468770.0,Asia
Strasbourg,48.5833,7.7458,France,FRA,Grand Est,465069.0,Europe
Lanús,-34.7,-58.4,Argentina,ARG,Buenos Aires,459263.0,South America
Qingzhen,26.5555,106.4646,China,CHN,Guizhou,467992.0,Asia
Jiangshan,28.7412,118.6225,China,CHN,Zhejiang,467862.0,Asia
Ba‘qūbah,33.7447,44.6436,Iraq,IRQ,Diyālá,467900.0,Asia
Tamale,9.4075,-0.8533,Ghana,GHA,Northern,466723.0,Africa
Gdańsk,54.3667,18.6333,Poland,POL,Pomorskie,464254.0,Europe
Manado,1.4931,124.8413,Indonesia,IDN,Sulawesi Utara,461636.0,Asia
Jinchang,38.5168,102.1866,China,CHN,Gansu,464200.0,Asia
Kanazawa,36.6,136.6167,Japan,JPN,Ishikawa,462479.0,Asia
Calabar,4.95,8.325,Nigeria,NGA,Cross River,461796.0,Africa
Long Beach,33.7981,-118.1675,United States,USA,California,462628.0,North America
Malatya,38.3554,38.3337,Turkey,TUR,Malatya,461574.0,Europe
Huế,16.4637,107.5908,Vietnam,VNM,Thừa Thiên-Huế,455230.0,Asia
Cranbourne,-38.0996,145.2834,Australia,AUS,Victoria,460491.0,Oceania
Jalgaon,21.0167,75.5667,India,IND,Mahārāshtra,460468.0,Asia
Port St. Lucie,27.2796,-80.3883,United States,USA,Florida,461152.0,North America
Mauá,-23.6678,-46.4608,Brazil,BRA,São Paulo,453286.0,South America
Fukuyama,34.4858,133.3625,Japan,JPN,Hiroshima,459576.0,Asia
Tel Aviv-Yafo,32.08,34.78,Israel,ISR,Tel Aviv,451523.0,Asia
Xicheng,23.3629,103.1545,China,CHN,Yunnan,459781.0,Asia
Marikina City,14.65,121.1,Philippines,PHL,Marikina,450741.0,Asia
Pyeongtaek,36.9947,127.0889,"Korea, South",KOR,Gyeonggi,457873.0,Asia
Kurnool,15.8222,78.035,India,IND,Andhra Pradesh,457633.0,Asia
City of Calamba,14.2167,121.1667,Philippines,PHL,Laguna,454486.0,Asia
Denton,33.2176,-97.1419,United States,USA,Texas,457177.0,North America
Ar Ramādī,33.4258,43.2992,Iraq,IRQ,Al Anbār,456853.0,Asia
Melaka,2.1889,102.2511,Malaysia,MYS,Melaka,455300.0,Asia
Jian’ou,27.0387,118.3215,China,CHN,Fujian,456000.0,Asia
Huadian,42.9688,126.7388,China,CHN,Jilin,455339.0,Asia
Taoyuan District,24.9889,121.3111,Taiwan,TWN,Taoyuan,443273.0,Asia
Iloilo,10.7167,122.5667,Philippines,PHL,Iloilo,447992.0,Asia
Kota Kinabalu,5.975,116.0725,Malaysia,MYS,Sabah,452058.0,Asia
Minzhu,43.7192,127.337,China,CHN,Jilin,453265.0,Asia
Rājshāhi,24.3667,88.6,Bangladesh,BGD,Rājshāhi,448087.0,Asia
Ţanţā,30.7833,31.0,Egypt,EGY,Al Gharbīyah,429503.0,Africa
Balashikha,55.8,37.95,Russia,RUS,Moskovskaya Oblast’,450771.0,Europe
Udaipur,24.5833,73.6833,India,IND,Rājasthān,451100.0,Asia
Kursk,51.7372,36.1872,Russia,RUS,Kurskaya Oblast’,449063.0,Europe
Mariupol,47.1306,37.5639,Ukraine,UKR,Donets’ka Oblast’,449498.0,Europe
Bukavu,-2.5,28.8667,Congo (Kinshasa),COD,Sud-Kivu,436779.0,Africa
Hsinchu,24.8047,120.9714,Taiwan,TWN,Hsinchu,445635.0,Asia
Barcelona,10.1333,-64.6833,Venezuela,VEN,Anzoátegui,448016.0,South America
Constantine,36.365,6.6147,Algeria,DZA,Constantine,448374.0,Africa
Tanbei,35.0907,112.9317,China,CHN,Henan,447701.0,Asia
Ado-Ekiti,7.6167,5.2167,Nigeria,NGA,Ekiti,446749.0,Africa
Batman,37.8833,41.1333,Turkey,TUR,Batman,447106.0,Europe
Pasay City,14.55,121.0,Philippines,PHL,Pasay,416522.0,Asia
Madison,43.0826,-89.3931,United States,USA,Wisconsin,447245.0,North America
Baisha,29.4774,119.2853,China,CHN,Zhejiang,446000.0,Asia
Betim,-19.9678,-44.1978,Brazil,BRA,Minas Gerais,444784.0,South America
Bellary,15.15,76.915,India,IND,Karnātaka,445388.0,Asia
Santiago de Cuba,20.0283,-75.8206,Cuba,CUB,Santiago de Cuba,444851.0,North America
Yongji,34.867,110.4417,China,CHN,Shanxi,444724.0,Asia
Reno,39.5497,-119.8483,United States,USA,Nevada,445020.0,North America
Danjiangkou,32.5408,111.5098,China,CHN,Hubei,443755.0,Asia
Kahramanmaraş,37.5875,36.9453,Turkey,TUR,Kahramanmaraş,443575.0,Europe
São José do Rio Prêto,-20.82,-49.3789,Brazil,BRA,São Paulo,442548.0,South America
Andijon,40.7,72.35,Uzbekistan,UZB,Andijon,441700.0,Asia
Harrisburg,40.2752,-76.8843,United States,USA,Pennsylvania,442289.0,North America
Nancy,48.6936,6.1846,France,FRA,Grand Est,434565.0,Europe
Puerto Plata,19.7958,-70.6944,Dominican Republic,DOM,Cibao Norte,440508.0,North America
Machida,35.5486,139.4467,Japan,JPN,Tōkyō,434414.0,Asia
Ning’an,44.3429,129.4621,China,CHN,Heilongjiang,440000.0,Asia
Beira,-19.8333,34.85,Mozambique,MOZ,Sofala,439264.0,Africa
Little Rock,34.7256,-92.3576,United States,USA,Arkansas,439815.0,North America
San Cristóbal,7.7714,-72.2261,Venezuela,VEN,Táchira,438798.0,South America
Zürich,47.3786,8.54,Switzerland,CHE,Zürich,434008.0,Europe
Zhangjiakou Shi Xuanhua Qu,40.5944,115.0243,China,CHN,Hebei,409745.0,Asia
Sunch’ŏn,39.4167,125.9333,"Korea, North",PRK,P’yŏngnam,437000.0,Asia
Diadema,-23.6858,-46.6228,Brazil,BRA,São Paulo,412428.0,South America
Guangming,45.3357,122.7765,China,CHN,Jilin,437559.0,Asia
Sāngli,16.8667,74.5667,India,IND,Mahārāshtra,436639.0,Asia
Tuticorin,8.7833,78.1333,India,IND,Tamil Nādu,436094.0,Asia
Herāt,34.3738,62.1792,Afghanistan,AFG,Herāt,436300.0,Asia
Kupang,-10.1633,123.5778,Indonesia,IDN,Nusa Tenggara Timur,433970.0,Asia
Jeju,33.5097,126.5219,"Korea, South",KOR,Jeju,435413.0,Asia
Bandar ‘Abbās,27.2,56.25,Iran,IRN,Hormozgān,435751.0,Asia
Santos,-23.9608,-46.3339,Brazil,BRA,São Paulo,433966.0,South America
Manizales,5.0661,-75.4847,Colombia,COL,Caldas,434403.0,South America
Stavropol,45.05,41.9833,Russia,RUS,Stavropol’skiy Kray,433577.0,Europe
Katsina,12.9889,7.6008,Nigeria,NGA,Katsina,432149.0,Africa
Yogyakarta,-7.8014,110.3644,Indonesia,IDN,Yogyakarta,422732.0,Asia
Calicut,11.25,75.7667,India,IND,Kerala,431560.0,Asia
Zanjān,36.6667,48.4833,Iran,IRN,Zanjān,433475.0,Asia
Welkom,-27.9831,26.7208,South Africa,ZAF,Free State,431944.0,Africa
Ulan-Ude,51.8272,107.6064,Russia,RUS,Buryatiya,431922.0,Europe
Oakland,37.7903,-122.2165,United States,USA,California,433031.0,North America
Mazār-e Sharīf,36.7,67.1167,Afghanistan,AFG,Balkh,427600.0,Asia
Kāshān,33.9833,51.4333,Iran,IRN,Eşfahān,432557.0,Asia
